"CodesAndRegsLicenseDataID","LicenseID","Description","LicenseName","Location","StreetNumber","Prefix","StreetName","Suffix","Longitude","Latitude","ExpirationDate","SubType","SubDescription","IssueDate","Zip","DISTRICT","NEIGHBORHOOD","ZONING","EndorsementType","EndorsementTypeDescription","EndorsementStatusDescription","EndorsementIssuedDate","AGENCY","GPSX","GPSY"
"1","5677","Alcoholic Beverage Annual","TUMBLEWEED SOUTHWEST GRILL","4255 OUTER LOOP ","4255"," ","OUTER","LOOP","-85.682815751500002","38.138771830800003","2018-08-31 00:00:00","RST","Restaurant / Cafe","2004-08-17 10:14:00","40219","24","","C1","RLD","NQ2 Retail Drink (Restaurant)","ACTIVE","","Codes and Regulations","1228336","235821"
"2","5677","Alcoholic Beverage Annual","TUMBLEWEED SOUTHWEST GRILL","4255 OUTER LOOP ","4255"," ","OUTER","LOOP","-85.682815751500002","38.138771830800003","2018-08-31 00:00:00","RST","Restaurant / Cafe","2004-08-17 10:14:00","40219","24","","C1","SD","Sunday Drink","ACTIVE","","Codes and Regulations","1228336","235821"
"3","5679","Alcoholic Beverage Annual","TUMBLEWEED SOUTHWEST GRILL","3550 SPRINGHURST COMMONS DR ","3550"," ","SPRINGHURST COMMONS","DR","-85.561420715400004","38.297505092800002","2018-08-31 00:00:00","RST","Restaurant / Cafe","2004-08-03 16:22:00","40241","17","","C1","RLD","NQ2 Retail Drink (Restaurant)","ACTIVE","","Codes and Regulations","1264070","293100"
"4","5679","Alcoholic Beverage Annual","TUMBLEWEED SOUTHWEST GRILL","3550 SPRINGHURST COMMONS DR ","3550"," ","SPRINGHURST COMMONS","DR","-85.561420715400004","38.297505092800002","2018-08-31 00:00:00","RST","Restaurant / Cafe","2004-08-03 16:22:00","40241","17","","C1","SD","Sunday Drink","ACTIVE","","Codes and Regulations","1264070","293100"
"5","5717","Alcoholic Beverage Annual","COURTYARD BY MARRIOTT","10200 CHAMPION FARMS DR ","10200"," ","CHAMPION FARMS","DR","-85.5625369224","38.296600024200004","2019-01-31 00:00:00","HOT","Hotels","2004-09-20 10:28:00","40241","17","","C1","LD","Quota Retail Drink","ACTIVE","","Codes and Regulations","1263745","292775"
"6","5717","Alcoholic Beverage Annual","COURTYARD BY MARRIOTT","10200 CHAMPION FARMS DR ","10200"," ","CHAMPION FARMS","DR","-85.5625369224","38.296600024200004","2019-01-31 00:00:00","HOT","Hotels","2004-09-20 10:28:00","40241","17","","C1","SD","Sunday Drink","ACTIVE","","Codes and Regulations","1263745","292775"
"7","4642","Alcoholic Beverage Annual","CARDINAL HALL OF FAME CAFE","2745 CRITTENDEN DR ","2745"," ","CRITTENDEN","DR","-85.748964987199997","38.203738271699997","2018-05-31 00:00:00","RST","Restaurant / Cafe","2004-05-25 08:47:00","40209","15","FAIRGROUNDS","M2","SBL","Supplemental Bar","ACTIVE","","Codes and Regulations","1209698","259779"
"8","4074","Alcoholic Beverage Annual","SHIRLEY MAE'S CAFE","802 S CLAY ST ","802","S","CLAY","ST","-85.742263335499999","38.241449471700001","2018-10-31 00:00:00","RST","Restaurant / Cafe","2004-04-02 15:25:00","40203","04","SMOKETOWN JACKSON","UN","LD2","Quota Retail Drink (12 AM - 2 AM)","ACTIVE","","Codes and Regulations","1211846","273479"
"9","14ABC1206","Alcoholic Beverage Annual","GRIFF'S","323 W CARDINAL BLVD ","323","W","CARDINAL","BLVD","-85.762024693499995","38.220850076300003","2018-05-31 00:00:00","RST","Restaurant / Cafe","2015-01-12 16:09:41","40208","06","OLD LOUISVILLE","TNZD","SD","Sunday Drink","ACTIVE","","Codes and Regulations","1206048","266071"
"10","14ABC1209","Alcoholic Beverage Annual","TOKYO JAPANESE RESTAURANT & SUSHI BAR","2415 LIME KILN LN ","2415"," ","LIME KILN","LN","-85.628026750700002","38.285934747900001","2019-01-31 00:00:00","RST","Restaurant / Cafe","2015-01-29 12:33:29","40222","07","","C1","RLD","NQ2 Retail Drink (Restaurant)","ACTIVE","2015-01-29 12:33:29","Codes and Regulations","1244894","289166"
"11","5874","Alcoholic Beverage Annual","PLEASURE VALLEY VFW POST #1181","6518 BLEVINS GAP RD ","6518"," ","BLEVINS GAP","RD","-85.883368774299996","38.070444948000002","2018-09-30 00:00:00","PRI","Private Club","2004-08-25 10:44:00","40272","14","","R4","SD","Sunday Drink","ACTIVE","","Codes and Regulations","1170221","211903"
"12","13ABC1013","Alcoholic Beverage Annual","COMMONWEALTH TAP","9411 NORTON COMMONS BLVD 101","9411"," ","NORTON COMMONS","BLVD","-85.567263842700001","38.324525816200001","2019-02-28 00:00:00","LIQ","Liquor Store","2013-09-24 16:53:20","40059","16","","PVD","MBP","NQ Retail Malt Beverage Package","ACTIVE","","Codes and Regulations","1262534","302963"
"13","13ABC1111","Alcoholic Beverage Annual","CASTAWAY LOUNGE","6909 SHEPHERDSVILLE RD ","6909"," ","SHEPHERDSVILLE","RD","-85.659314158800001","38.150334758","2019-02-28 00:00:00","BAR","Bar","2014-01-29 11:33:07","40219","24","","C2","MBRD4","NQ4 Retail Malt Beverage Drink (12 am till 4 am)","ACTIVE","","Codes and Regulations","1235159","239927"
"14","5875","Alcoholic Beverage Annual","LEBANESE AMERICAN COUNTRY CLUB","3020 RIVER RD ","3020"," ","RIVER","RD","-85.696449675099998","38.278283133899997","2018-05-31 00:00:00","CLB","Country Club","2004-08-25 10:47:00","40207","09","REMAINDER OF CITY","R5","SD","Sunday Drink","ACTIVE","","Codes and Regulations","1225213","286681"
"15","13885","Alcoholic Beverage Annual","GOODWOOD BREWING COMPANY","636 E MAIN ST ","636","E","MAIN","ST","-85.740068398600002","38.254635338999996","2018-11-30 00:00:00","MAN","Manufacturer","2005-03-22 13:56:00","40202","04","REMAINDER OF CITY","EZ1","LD","Quota Retail Drink","ACTIVE","","Codes and Regulations","1212554","278270"
"16","5877","Alcoholic Beverage Annual","PORCINI","2730 FRANKFORT AVE ","2730"," ","FRANKFORT","AVE","-85.692445884500003","38.254576811","2018-09-30 00:00:00","RST","Restaurant / Cafe","2004-08-25 10:54:00","40206","09","CRESCENT HILL","C1","RLD","NQ2 Retail Drink (Restaurant)","ACTIVE","","Codes and Regulations","1226227","278031"
"17","14ABC1119","Alcoholic Beverage Annual","AGAINST THE GRAIN MICROBREWERY","1800 NORTHWESTERN PKY ","1800"," ","NORTHWESTERN","PKY","-85.776725389700005","38.265875231800003","2018-10-31 00:00:00","MAN","Manufacturer","2014-09-04 11:15:38","40203","05","PORTLAND","EZ1","MBCO","NQ Retail Malt Beverage Combo (Package and Drink)","ACTIVE","","Codes and Regulations","1202097","282535"
"18","15ABC1134","Alcoholic Beverage Annual","LE MOO","2300 LEXINGTON RD ","2300"," ","LEXINGTON","RD","-85.703500029599994","38.245157112400001","2018-09-30 00:00:00","RST","Restaurant / Cafe","2015-09-09 08:29:57","40206","08","IRISH HILL","C2","RLD","NQ2 Retail Drink (Restaurant)","ACTIVE","2015-09-09 08:29:57","Codes and Regulations","1222999","274651"
"19","15ABC1093","Alcoholic Beverage Annual","PASSALINO'S","207 W MARKET ST ","207","W","MARKET","ST","-85.753798659300003","38.255173419499997","2018-11-30 00:00:00","RST","Restaurant / Cafe","2015-08-05 13:10:46","40202","04","CENTRAL BUSINESS DISTRICT","(C3)","LD4","Quota Retail Drink (12 AM - 4 AM)","ACTIVE","2015-08-05 13:10:46","Codes and Regulations","1208615","278530"
"20","20183","Alcoholic Beverage Annual","WILTSHIRE PANTRY","1310 E BRECKINRIDGE ST ","1310","E","BRECKINRIDGE","ST","-85.730733064000006","38.240398832799997","2018-10-31 00:00:00","RST","Restaurant / Cafe","2008-02-25 08:27:21","40204","04","HIGHLANDS","CR","SD","Sunday Drink","ACTIVE","","Codes and Regulations","1215151","273043"
"21","15ABC1097","Alcoholic Beverage Annual","WALGREENS #12321","700 ALGONQUIN PKY ","700"," ","ALGONQUIN","PKY","-85.770335451999998","38.2112451255","2018-08-31 00:00:00","DRG","Drug Store","2015-07-29 18:24:47","40208","06","TAYLOR BERRY","C1","LP","Quota Retail Package","ACTIVE","2015-07-29 18:24:47","Codes and Regulations","1203603","262613"
"22","5898","Alcoholic Beverage Annual","SPRING STREET - A BAR & GRILL","300 S SPRING ST ","300","S","SPRING","ST","-85.719003440799995","38.251340160399998","2018-09-30 00:00:00","BAR","Bar","2004-08-25 13:05:00","40206","09","IRISH HILL","C1","LD","Quota Retail Drink","ACTIVE","","Codes and Regulations","1218583","276973"
"23","5898","Alcoholic Beverage Annual","SPRING STREET - A BAR & GRILL","300 S SPRING ST ","300","S","SPRING","ST","-85.719003440799995","38.251340160399998","2018-09-30 00:00:00","BAR","Bar","2004-08-25 13:05:00","40206","09","IRISH HILL","C1","LD4","Quota Retail Drink (12 AM - 4 AM)","ACTIVE","","Codes and Regulations","1218583","276973"
"24","15ABC1100","Alcoholic Beverage Annual","WALGREENS #05436","4025 TAYLORSVILLE RD ","4025"," ","TAYLORSVILLE","RD","-85.624090340799995","38.220267387299998","2018-08-31 00:00:00","DRG","Drug Store","2015-07-29 17:45:21","40220","11","HIKES POINT","C1","MBP","NQ Retail Malt Beverage Package","ACTIVE","2015-07-29 17:45:21","Codes and Regulations","1245667","265238"
"25","5898","Alcoholic Beverage Annual","SPRING STREET - A BAR & GRILL","300 S SPRING ST ","300","S","SPRING","ST","-85.719003440799995","38.251340160399998","2018-09-30 00:00:00","BAR","Bar","2004-08-25 13:05:00","40206","09","IRISH HILL","C1","SD","Sunday Drink","ACTIVE","","Codes and Regulations","1218583","276973"
"26","15ABC1102","Alcoholic Beverage Annual","WALGREENS #11665","4310 OUTER LOOP ","4310"," ","OUTER","LOOP","-85.680538214699993","38.137539212100002","2018-08-31 00:00:00","DRG","Drug Store","2015-07-29 15:49:34","40219","24","","C1","LP","Quota Retail Package","ACTIVE","2015-07-29 15:49:00","Codes and Regulations","1228984","235362"
"27","5911","Alcoholic Beverage Annual","THE IRISH ROVER","2319 FRANKFORT AVE ","2319"," ","FRANKFORT","AVE","-85.702465022599995","38.2536534575","2018-09-30 00:00:00","RST","Restaurant / Cafe","2004-08-25 14:21:00","40206","09","CLIFTON","C2","RLD","NQ2 Retail Drink (Restaurant)","ACTIVE","","Codes and Regulations","1223345","277740"
"28","5911","Alcoholic Beverage Annual","THE IRISH ROVER","2319 FRANKFORT AVE ","2319"," ","FRANKFORT","AVE","-85.702465022599995","38.2536534575","2018-09-30 00:00:00","RST","Restaurant / Cafe","2004-08-25 14:21:00","40206","09","CLIFTON","C2","SD","Sunday Drink","ACTIVE","","Codes and Regulations","1223345","277740"
"29","5912","Alcoholic Beverage Annual","TWIN DIXIE LANES","10526 DIXIE HWY ","10526"," ","DIXIE","HWY","-85.871247315199994","38.102423853300003","2018-09-30 00:00:00","AMU","Amusement","2004-08-25 14:27:00","40272","14","","C2","LD","Quota Retail Drink","ACTIVE","","Codes and Regulations","1173915","223485"
"30","5912","Alcoholic Beverage Annual","TWIN DIXIE LANES","10526 DIXIE HWY ","10526"," ","DIXIE","HWY","-85.871247315199994","38.102423853300003","2018-09-30 00:00:00","AMU","Amusement","2004-08-25 14:27:00","40272","14","","C2","LD4","Quota Retail Drink (12 AM - 4 AM)","ACTIVE","","Codes and Regulations","1173915","223485"
"31","5912","Alcoholic Beverage Annual","TWIN DIXIE LANES","10526 DIXIE HWY ","10526"," ","DIXIE","HWY","-85.871247315199994","38.102423853300003","2018-09-30 00:00:00","AMU","Amusement","2004-08-25 14:27:00","40272","14","","C2","SD","Sunday Drink","ACTIVE","","Codes and Regulations","1173915","223485"
"32","5913","Alcoholic Beverage Annual","VALLEY LIQUORS","10608 DIXIE HWY ","10608"," ","DIXIE","HWY","-85.871409459600002","38.100809422700003","2018-09-30 00:00:00","LIQ","Liquor Store","2004-08-25 14:36:00","40272","14","","C2","LP","Quota Retail Package","ACTIVE","","Codes and Regulations","1173858","222898"
"33","16ABC1018","Alcoholic Beverage Annual","BIRRACIBO","445 S 4TH ST ","445","S","4TH","ST","-85.757200002499999","38.251746045399997","2018-11-30 00:00:00","RST","Restaurant / Cafe","2016-02-24 09:50:33","40202","04","CENTRAL BUSINESS DISTRICT","(C3)","LD","Quota Retail Drink","ACTIVE","","Codes and Regulations","1207618","277298"
"34","16ABC1027","Alcoholic Beverage Annual","WILTSHIRE AT THE SPEED","2035 S 3RD ST ","2035","S","3RD","ST","-85.760857879200003","38.217975987199999","2018-05-31 00:00:00","RST","Restaurant / Cafe","2016-02-18 14:53:50","40208","06","UNIVERSITY","OR2","CATE","Caterer","ACTIVE","2016-02-18 14:53:49","Codes and Regulations","1206366","265019"
"35","32685","Alcoholic Beverage Annual","DERBY CITY PIZZA COMPANY #2","5603 GREENWOOD RD ","5603"," ","GREENWOOD","RD","-85.859809954300005","38.144740477299997","2018-09-30 10:21:00","RST","Restaurant / Cafe","2011-07-06 09:06:00","40258","12","","C2","RLD2","NQ2 Restaurant Liquor Drink (12 am till 2 am)","ACTIVE","","Codes and Regulations","1177475","238835"
"36","5840","Alcoholic Beverage Annual","AUGUST MOON RESTAURANT","2269 LEXINGTON RD ","2269"," ","LEXINGTON","RD","-85.705189670400003","38.245885823899997","2018-09-30 00:00:00","RST","Restaurant / Cafe","2004-08-23 16:40:00","40206","09","IRISH HILL","C1","RLD","NQ2 Retail Drink (Restaurant)","ACTIVE","","Codes and Regulations","1222518","274924"
"37","5840","Alcoholic Beverage Annual","AUGUST MOON RESTAURANT","2269 LEXINGTON RD ","2269"," ","LEXINGTON","RD","-85.705189670400003","38.245885823899997","2018-09-30 00:00:00","RST","Restaurant / Cafe","2004-08-23 16:40:00","40206","09","IRISH HILL","C1","SD","Sunday Drink","ACTIVE","","Codes and Regulations","1222518","274924"
"38","15ABC1121","Alcoholic Beverage Annual","XSCAPE THEATERS","12450 SYCAMORE STATION PL ","12450"," ","SYCAMORE STATION","PL","-85.531570338400002","38.222352302200001","2019-02-28 00:00:00","AMU","Amusement","2015-09-16 09:45:42","40299","20","","C2","SD","Sunday Drink","ACTIVE","2015-09-16 09:45:42","Codes and Regulations","1272255","265614"
"39","5843","Alcoholic Beverage Annual","BLUE DOG BAKERY & CAFE","2868 FRANKFORT AVE ","2868"," ","FRANKFORT","AVE","-85.687399097899998","38.254570371500002","2018-09-30 00:00:00","BAR","Bar","2004-08-24 08:11:00","40206","09","CRESCENT HILL","C1","LD","Quota Retail Drink","ACTIVE","","Codes and Regulations","1227676","278006"
"40","33552","Alcoholic Beverage Annual","LOCKER ROOM BAR & GRILL","12812 DIXIE HWY ","12812"," ","DIXIE","HWY","-85.8853709638","38.069255098799999","2018-09-30 00:00:00","BAR","Bar","2011-10-14 10:04:00","40272","14","","C1","MBRD","NQ4 Retail Malt Beverage Drink","ACTIVE","","Codes and Regulations","1169637","211480"
"41","14ABC1130","Alcoholic Beverage Annual","TEA STATION CHINESE BISTRO","9422 NORTON COMMONS BLVD 101","9422"," ","NORTON COMMONS","BLVD","-85.565953071799996","38.324719084599998","2019-02-28 00:00:00","RST","Restaurant / Cafe","2014-09-15 09:07:55","40059","16","","PVD","RLD","NQ2 Retail Drink (Restaurant)","ACTIVE","","Codes and Regulations","1262911","303028"
"42","36433","Alcoholic Beverage Annual","NOWHERE LOUISVILLE","1133 BARDSTOWN RD ","1133"," ","BARDSTOWN","RD","-85.719347381399999","38.238043466400001","2018-10-31 00:00:00","BAR","Bar","2013-03-19 16:59:00","40204","08","CHEROKEE TRIANGLE","(C2)","MBRD4","NQ4 Retail Malt Beverage Drink (12 am till 4 am)","ACTIVE","","Codes and Regulations","1218407","272133"
"43","5847","Alcoholic Beverage Annual","BREWSKEE'S","5507 VALLEY STATION RD ","5507"," ","VALLEY STATION","RD","-85.865577219200006","38.107690654700001","2018-09-30 12:15:00","BAR","Bar","2004-08-24 08:49:00","40272","25","","C2","LD","Quota Retail Drink","ACTIVE","","Codes and Regulations","1175580","225374"
"44","15ABC1121","Alcoholic Beverage Annual","XSCAPE THEATERS","12450 SYCAMORE STATION PL ","12450"," ","SYCAMORE STATION","PL","-85.531570338400002","38.222352302200001","2019-02-28 00:00:00","AMU","Amusement","2015-09-16 09:45:42","40299","20","","C2","MBRD2","NQ4 Retail Malt Beverage Drink (12 am till 2 am)","ACTIVE","2015-09-16 09:45:42","Codes and Regulations","1272255","265614"
"45","5847","Alcoholic Beverage Annual","BREWSKEE'S","5507 VALLEY STATION RD ","5507"," ","VALLEY STATION","RD","-85.865577219200006","38.107690654700001","2018-09-30 12:15:00","BAR","Bar","2004-08-24 08:49:00","40272","25","","C2","SD","Sunday Drink","ACTIVE","","Codes and Regulations","1175580","225374"
"46","5848","Alcoholic Beverage Annual","BEVERAGE WORLD","2332 BROWNSBORO RD ","2332"," ","BROWNSBORO","RD","-85.701999994000005","38.258091841300001","2018-09-30 00:00:00","LIQ","Liquor Store","2004-08-24 09:00:00","40206","09","CLIFTON","C1","LP","Quota Retail Package","ACTIVE","","Codes and Regulations","1223504","279354"
"47","5849","Alcoholic Beverage Annual","CAPTAIN'S CELLAR","2915 BROWNSBORO RD ","2915"," ","BROWNSBORO","RD","-85.687700186800001","38.260279049399998","2018-09-30 00:00:00","LIQ","Liquor Store","2004-08-24 09:13:00","40206","09","BROWNSBORO ZORN","C1","LP","Quota Retail Package","ACTIVE","","Codes and Regulations","1227622","280086"
"48","16ABC1030","Alcoholic Beverage Annual","THE JOY LUCK","9850 VON ALLMEN CT 101","9850"," ","VON ALLMEN","CT","-85.569514534700005","38.312183432300003","2019-01-31 00:00:00","RST","Restaurant / Cafe","2016-05-24 09:28:28","40241","16","","C2","RLD","NQ2 Retail Drink (Restaurant)","ACTIVE","2016-05-24 09:28:27","Codes and Regulations","1261824","298478"
"49","16ABC1060","Alcoholic Beverage Annual","TAJ GALLERY","807 E MARKET ST ","807","E","MARKET","ST","-85.737650012499998","38.253383615799997","2018-09-30 00:00:00","BAR","Bar","2016-05-09 10:54:38","40206","04","REMAINDER OF CITY","EZ1","MBP2","NQ Retail Malt Beverage Package (12 am till 2 am)","ACTIVE","2016-05-09 10:54:38","Codes and Regulations","1213241","277803"
"50","16ABC1064","Alcoholic Beverage Annual","MOD PIZZA","3085 BRECKENRIDGE LN 101","3085"," ","BRECKENRIDGE","LN","-85.626783614600001","38.215613596399997","2019-01-31 00:00:00","RST","Restaurant / Cafe","2016-07-19 12:34:42","40220","26","","C1","SD","Sunday Drink","ACTIVE","2016-07-19 12:34:42","Codes and Regulations","1244868","263555"
"51","16ABC1065","Alcoholic Beverage Annual","KERN'S KORNER","2600 BARDSTOWN RD ","2600"," ","BARDSTOWN","RD","-85.683559740000007","38.222218964200003","2019-01-31 00:00:00","BAR","Bar","2016-05-23 11:59:42","40205","08","BELKNAP","(C2)","LD","Quota Retail Drink","ACTIVE","2016-05-23 11:59:42","Codes and Regulations","1228595","266209"
"52","16ABC1065","Alcoholic Beverage Annual","KERN'S KORNER","2600 BARDSTOWN RD ","2600"," ","BARDSTOWN","RD","-85.683559740000007","38.222218964200003","2019-01-31 00:00:00","BAR","Bar","2016-05-23 11:59:42","40205","08","BELKNAP","(C2)","MBRD","NQ4 Retail Malt Beverage Drink","ACTIVE","2016-05-23 11:59:42","Codes and Regulations","1228595","266209"
"53","16ABC1065","Alcoholic Beverage Annual","KERN'S KORNER","2600 BARDSTOWN RD ","2600"," ","BARDSTOWN","RD","-85.683559740000007","38.222218964200003","2019-01-31 00:00:00","BAR","Bar","2016-05-23 11:59:42","40205","08","BELKNAP","(C2)","SD","Sunday Drink","ACTIVE","2016-05-23 11:59:42","Codes and Regulations","1228595","266209"
"54","16ABC1067","Alcoholic Beverage Annual","DOLLAR GENERAL STORE 3302","8519 TERRY RD ","8519"," ","TERRY","RD","-85.873050383500001","38.130127052600002","2018-07-31 00:00:00","GRO","Grocery / Food Mart","2016-05-13 12:16:22","40258","14","","C1","MBP","NQ Retail Malt Beverage Package","ACTIVE","2016-05-13 12:16:22","Codes and Regulations","1173574","233581"
"55","5545","Alcoholic Beverage Annual","CIRCLE K #3238","5035 MUD LN ","5035"," ","MUD","LN","-85.670314661399999","38.093173094400001","2018-08-31 00:00:00","GRO","Grocery / Food Mart","2004-08-02 08:51:00","40229","13","","C2","MBP","NQ Retail Malt Beverage Package","ACTIVE","","Codes and Regulations","1231675","219162"
"56","5546","Alcoholic Beverage Annual","THORNTON OIL #54","4154 BARDSTOWN RD ","4154"," ","BARDSTOWN","RD","-85.643333134000002","38.189346297","2018-08-31 00:00:00","GRO","Grocery / Food Mart","2004-08-02 09:23:00","40218","02","","C1","MBP2","NQ Retail Malt Beverage Package (12 am till 2 am)","ACTIVE","","Codes and Regulations","1239969","254062"
"57","5548","Alcoholic Beverage Annual","THORNTON OIL #151","7920 BARDSTOWN RD ","7920"," ","BARDSTOWN","RD","-85.579373013799994","38.131505340799997","2018-08-31 00:00:00","GRO","Grocery / Food Mart","2004-08-02 09:29:00","40291","22","","C1","MBP2","NQ Retail Malt Beverage Package (12 am till 2 am)","ACTIVE","","Codes and Regulations","1258046","232729"
"58","5568","Alcoholic Beverage Annual","THORNTON OIL #49","11710 DIXIE HWY ","11710"," ","DIXIE","HWY","-85.881070725200004","38.0847945139","2018-08-31 00:00:00","GRO","Grocery / Food Mart","2004-08-02 10:47:00","40272","14","","C2","MBP","NQ Retail Malt Beverage Package","ACTIVE","","Codes and Regulations","1170975","217116"
"59","5568","Alcoholic Beverage Annual","THORNTON OIL #49","11710 DIXIE HWY ","11710"," ","DIXIE","HWY","-85.881070725200004","38.0847945139","2018-08-31 00:00:00","GRO","Grocery / Food Mart","2004-08-02 10:47:00","40272","14","","C2","MBP2","NQ Retail Malt Beverage Package (12 am till 2 am)","ACTIVE","","Codes and Regulations","1170975","217116"
"60","5570","Alcoholic Beverage Annual","THORNTON OIL #21","2700 FERN VALLEY RD ","2700"," ","FERN VALLEY","RD","-85.715831801600004","38.156836368599997","2018-08-31 00:00:00","GRO","Grocery / Food Mart","2004-08-02 10:49:00","40213","21","","C2","MBP","NQ Retail Malt Beverage Package","ACTIVE","","Codes and Regulations","1218946","242548"
"61","5571","Alcoholic Beverage Annual","CIRCLE K #3230","5000 SHEPHERDSVILLE RD ","5000"," ","SHEPHERDSVILLE","RD","-85.660212843799997","38.178207581199999","2018-08-31 00:00:00","GRO","Grocery / Food Mart","2004-08-02 10:53:00","40228","02","","C1","MBP2","NQ Retail Malt Beverage Package (12 am till 2 am)","ACTIVE","","Codes and Regulations","1235056","250080"
"62","5575","Alcoholic Beverage Annual","CIRCLE K #134","6204 SHEPHERDSVILLE RD ","6204"," ","SHEPHERDSVILLE","RD","-85.660623629","38.1593928733","2018-08-31 00:00:00","GRO","Grocery / Food Mart","2004-08-02 10:58:00","40228","02","","C1","MBP","NQ Retail Malt Beverage Package","ACTIVE","","Codes and Regulations","1234833","243231"
"63","5577","Alcoholic Beverage Annual","THORNTON OIL #41","5318 PRESTON HWY ","5318"," ","PRESTON","HWY","-85.709226281100001","38.170681266999999","2018-08-31 00:00:00","GRO","Grocery / Food Mart","2004-08-02 11:00:00","40213","21","","C1","MBP2","NQ Retail Malt Beverage Package (12 am till 2 am)","ACTIVE","","Codes and Regulations","1220925","247559"
"64","5589","Alcoholic Beverage Annual","THORNTON OIL #24","3726 TAYLORSVILLE RD ","3726"," ","TAYLORSVILLE","RD","-85.643898538599998","38.220463731400002","2018-08-31 00:00:00","GRO","Grocery / Food Mart","2004-08-02 11:36:00","40220","26","AVONDALE MELBOURNE HEIGHTS","C1","MBP2","NQ Retail Malt Beverage Package (12 am till 2 am)","ACTIVE","","Codes and Regulations","1239978","265395"
"65","5594","Alcoholic Beverage Annual","CIRCLE K #3240","4600 WATTBOURNE LN ","4600"," ","WATTBOURNE","LN","-85.605318861000001","38.1849412567","2018-08-31 00:00:00","GRO","Grocery / Food Mart","2004-08-02 12:47:00","40299","11","","C2","MBP","NQ Retail Malt Beverage Package","ACTIVE","","Codes and Regulations","1250870","252295"
"66","5627","Alcoholic Beverage Annual","WAL-MART SUPER CENTER #3294","7101 CEDAR SPRINGS BLVD ","7101"," ","CEDAR SPRINGS","BLVD","-85.587211005900002","38.142722325000001","2018-08-31 00:00:00","GRO","Grocery / Food Mart","2004-08-16 10:27:00","40291","22","","C2","MBP2","NQ Retail Malt Beverage Package (12 am till 2 am)","ACTIVE","","Codes and Regulations","1255851","236846"
"67","14ABC1117","Alcoholic Beverage Annual","J AND C GAS STATION","4953 MANSLICK RD ","4953"," ","MANSLICK","RD","-85.797088796799997","38.170845464899998","2019-02-28 00:00:00","GRO","Grocery / Food Mart","2014-08-28 13:13:34","40216","15","HAZELWOOD","C1","MBP","NQ Retail Malt Beverage Package","ACTIVE","2014-08-28 13:13:34","Codes and Regulations","1195670","248031"
"68","14ABC1120","Alcoholic Beverage Annual","THORNTONS #162","9400 WESTPORT RD ","9400"," ","WESTPORT","RD","-85.5767802708","38.285404641500001","2018-08-31 00:00:00","GRO","Grocery / Food Mart","2014-09-23 17:14:14","40241","17","","C1","MBP","NQ Retail Malt Beverage Package","ACTIVE","2014-09-23 17:14:14","Codes and Regulations","1259599","288757"
"69","14ABC1120","Alcoholic Beverage Annual","THORNTONS #162","9400 WESTPORT RD ","9400"," ","WESTPORT","RD","-85.5767802708","38.285404641500001","2018-08-31 00:00:00","GRO","Grocery / Food Mart","2014-09-23 17:14:14","40241","17","","C1","MBP2","NQ Retail Malt Beverage Package (12 am till 2 am)","ACTIVE","2014-09-23 17:14:14","Codes and Regulations","1259599","288757"
"70","14ABC1122","Alcoholic Beverage Annual","LIQUOR ZONE","5610 S 3RD ST ","5610","S","3RD","ST","-85.768947299399997","38.168982445200001","2019-02-28 00:00:00","LIQ","Liquor Store","2014-08-28 13:11:56","40214","21","IROQUOIS","C2","LP2","Quota Retail Package (12 AM - 2 AM)","ACTIVE","2014-08-28 13:11:55","Codes and Regulations","1203748","247218"
"71","18342","Alcoholic Beverage Annual","VARANESE FUSION","2106 FRANKFORT AVE ","2106"," ","FRANKFORT","AVE","-85.708463910199995","38.253900024099998","2018-09-30 00:00:00","RST","Restaurant / Cafe","2007-08-14 12:53:29","40206","09","CLIFTON","C2","LD2","Quota Retail Drink (12 AM - 2 AM)","ACTIVE","","Codes and Regulations","1221624","277857"
"72","5805","Alcoholic Beverage Annual","LOUISVILLE BOAT CLUB","4200 RIVER RD ","4200"," ","RIVER","RD","-85.676597346199998","38.2919073172","2018-05-31 00:00:00","CLB","Country Club","2004-08-19 09:34:00","40207","07","","R4","PC","NQ3 Retail Drink (Private Club)","ACTIVE","","Codes and Regulations","1230988","291553"
"73","26768","Alcoholic Beverage Annual","SENOR IGUANAS CORP II","9424 SHELBYVILLE RD ","9424"," ","SHELBYVILLE","RD","-85.575455237100002","38.245848449900002","2019-01-31 00:00:00","RST","Restaurant / Cafe","2010-03-02 14:38:00","40222","18","","C2","RLD4","NQ2 Restaurant Liquor Drink (12 am till 4 am)","ACTIVE","","Codes and Regulations","1259772","274348"
"74","14ABC1211","Alcoholic Beverage Annual","CASH SAVER 1170","501 MOUNT HOLLY RD ","501"," ","MOUNT HOLLY","RD","-85.756517819300001","38.104188503800003","2018-03-31 00:00:00","GRO","Grocery / Food Mart","2015-01-29 16:11:30","40118","13","","C1","MBP","NQ Retail Malt Beverage Package","ACTIVE","2015-01-29 16:11:30","Codes and Regulations","1206935","223567"
"75","13ABC1077","Alcoholic Beverage Annual","CHILL BAR & PACKAGE IN THE HIGHLANDS","1117 BARDSTOWN RD ","1117"," ","BARDSTOWN","RD","-85.719988274000002","38.2382248989","2018-10-31 00:00:00","BAR","Bar","2013-10-16 15:08:34","40204","08","CHEROKEE TRIANGLE","(C2)","MBRD4","NQ4 Retail Malt Beverage Drink (12 am till 4 am)","ACTIVE","","Codes and Regulations","1218224","272202"
"76","7072","Alcoholic Beverage Annual","OWL CREEK COMMUNITY ASSN","10607 HOBBS STATION RD ","10607"," ","HOBBS STATION","RD","-85.556431666700007","38.258272777899997","2019-01-31 00:00:00","PRI","Private Club","2004-11-16 12:48:00","40223","18","","R4","PC","NQ3 Retail Drink (Private Club)","ACTIVE","","Codes and Regulations","1265299","278794"
"77","34444","Alcoholic Beverage Annual","CHINA GARDEN RESTAURANT","7309 PRESTON HWY ","7309"," ","PRESTON","HWY","-85.690484484600006","38.146034870699999","2019-02-28 00:00:00","RST","Restaurant / Cafe","2012-05-15 15:18:56","40219","24","","C1","RLD","NQ2 Retail Drink (Restaurant)","ACTIVE","","Codes and Regulations","1226172","238500"
"78","13ABC1013","Alcoholic Beverage Annual","COMMONWEALTH TAP","9411 NORTON COMMONS BLVD 101","9411"," ","NORTON COMMONS","BLVD","-85.567263842700001","38.324525816200001","2019-02-28 00:00:00","LIQ","Liquor Store","2013-09-24 16:53:20","40059","16","","PVD","MBRD","NQ4 Retail Malt Beverage Drink","ACTIVE","","Codes and Regulations","1262534","302963"
"79","13ABC1111","Alcoholic Beverage Annual","CASTAWAY LOUNGE","6909 SHEPHERDSVILLE RD ","6909"," ","SHEPHERDSVILLE","RD","-85.659314158800001","38.150334758","2019-02-28 00:00:00","BAR","Bar","2014-01-29 11:33:07","40219","24","","C2","MBRD","NQ4 Retail Malt Beverage Drink","ACTIVE","","Codes and Regulations","1235159","239927"
"80","15ABC1019","Alcoholic Beverage Annual","GRACIOUS PLENTY CATERING","2900 BROWNSBORO RD ","2900"," ","BROWNSBORO","RD","-85.687848734499994","38.259865270200002","2018-09-30 00:00:00","CAT","Catering","2015-03-11 09:02:43","40206","09","CRESCENT HILL","C1","CATE","Caterer","ACTIVE","","Codes and Regulations","1227577","279936"
"81","5844","Alcoholic Beverage Annual","BONNIE & CLYDE'S PIZZA PARLOR","7611 DIXIE HWY ","7611"," ","DIXIE","HWY","-85.840676182099998","38.140152818200001","2018-09-30 00:00:00","RST","Restaurant / Cafe","2004-08-24 08:20:00","40258","25","","C2","MBRD","NQ4 Retail Malt Beverage Drink","ACTIVE","","Codes and Regulations","1182948","237069"
"82","6634","Alcoholic Beverage Annual","AKIKO'S","1123 BARDSTOWN RD ","1123"," ","BARDSTOWN","RD","-85.719778346200002","38.238175360600003","2018-10-31 00:00:00","RST","Restaurant / Cafe","2004-10-14 15:16:00","40204","08","CHEROKEE TRIANGLE","(C2)","MBRD","NQ4 Retail Malt Beverage Drink","ACTIVE","","Codes and Regulations","1218284","272183"
"83","6634","Alcoholic Beverage Annual","AKIKO'S","1123 BARDSTOWN RD ","1123"," ","BARDSTOWN","RD","-85.719778346200002","38.238175360600003","2018-10-31 00:00:00","RST","Restaurant / Cafe","2004-10-14 15:16:00","40204","08","CHEROKEE TRIANGLE","(C2)","MBRD4","NQ4 Retail Malt Beverage Drink (12 am till 4 am)","ACTIVE","","Codes and Regulations","1218284","272183"
"84","4250","Alcoholic Beverage Annual","FISHERY, THE","3624 LEXINGTON RD ","3624"," ","LEXINGTON","RD","-85.660955672399993","38.251437931799998","2018-05-31 00:00:00","RST","Restaurant / Cafe","2004-04-21 08:55:32","40207","09","ROCKCREEK LEXINGTON ROAD","C1","CATE","Caterer","ACTIVE","","Codes and Regulations","1235251","276748"
"85","4252","Alcoholic Beverage Annual","GASTHAUS GERMAN RESTAURANT","4812 BROWNSBORO CTR ","4812"," ","BROWNSBORO","CTR","-85.636520810799993","38.2778699745","2018-05-31 00:00:00","RST","Restaurant / Cafe","2004-04-21 09:01:00","40207","07","","C1","RLD","NQ2 Retail Drink (Restaurant)","ACTIVE","","Codes and Regulations","1242412","286266"
"86","15ABC1136","Alcoholic Beverage Annual","SILVIO'S","104 FAIRFAX AVE ","104"," ","FAIRFAX","AVE","-85.651283643400006","38.2521283596","2018-05-31 00:00:00","RST","Restaurant / Cafe","2015-08-21 11:41:25","40207","09","ROCKCREEK LEXINGTON ROAD","C1","SD","Sunday Drink","INACTIVE","2015-08-21 11:41:25","Codes and Regulations","1238032","276957"
"87","15ABC1142","Alcoholic Beverage Annual","ALOFT LOUISVILLE DOWNTOWN","102 W MAIN ST ","102","W","MAIN","ST","-85.751844958800007","38.255857686299997","2018-11-30 00:00:00","HOT","Hotels","2015-10-13 10:21:14","40202","04","CENTRAL BUSINESS DISTRICT","(C3)","MBRD2","NQ4 Retail Malt Beverage Drink (12 am till 2 am)","INACTIVE","2015-10-13 10:21:14","Codes and Regulations","1209180","278770"
"88","15ABC1149","Alcoholic Beverage Annual","LUCKY JUNIORS LIQUORS","359 N 26TH ST ","359","N","26TH","ST","-85.792788630900006","38.265595525199998","2018-03-31 00:00:00","LIQ","Liquor Store","2015-09-10 08:05:28","40212","05","PORTLAND","C2","LP2","Quota Retail Package (12 AM - 2 AM)","ACTIVE","","Codes and Regulations","1197484","282510"
"89","15ABC1149","Alcoholic Beverage Annual","LUCKY JUNIORS LIQUORS","359 N 26TH ST ","359","N","26TH","ST","-85.792788630900006","38.265595525199998","2018-03-31 00:00:00","LIQ","Liquor Store","2015-09-10 08:05:28","40212","05","PORTLAND","C2","MBP2","NQ Retail Malt Beverage Package (12 am till 2 am)","ACTIVE","","Codes and Regulations","1197484","282510"
"90","15ABC1202","Alcoholic Beverage Annual","KY FAIR & EXPOSITION CENTER","937 PHILLIPS LN ","937"," ","PHILLIPS","LN","-85.739884367100004","38.195074368699999","2018-05-31 00:00:00","AMU","Amusement","2015-12-07 07:57:28","40209","21","FAIRGROUNDS","R5","CCC","NQ1 Retail Drink (Convention Center or Convention Hotel Complex)","ACTIVE","","Codes and Regulations","1212256","256582"
"91","15ABC1202","Alcoholic Beverage Annual","KY FAIR & EXPOSITION CENTER","937 PHILLIPS LN ","937"," ","PHILLIPS","LN","-85.739884367100004","38.195074368699999","2018-05-31 00:00:00","AMU","Amusement","2015-12-07 07:57:28","40209","21","FAIRGROUNDS","R5","ESL","Extended Hours Supplement","ACTIVE","","Codes and Regulations","1212256","256582"
"92","15ABC1124","Alcoholic Beverage Annual","LIQUOR PALACE 8","4002 PRESTON HWY ","4002"," ","PRESTON","HWY","-85.729870095400003","38.194281753399999","2019-02-28 00:00:00","LIQ","Liquor Store","","40213","21","PRESTONIA","C1","MBP","NQ Retail Malt Beverage Package","ACTIVE","","Codes and Regulations","1215129","256247"
"93","16ABC1028","Alcoholic Beverage Annual","VISA VIS BAR & GRILL","1164 S 3RD ST ","1164","S","3RD","ST","-85.759012671999997","38.235063119499998","2018-10-31 16:36:00","RST","Restaurant / Cafe","2016-04-12 08:37:28","40203","06","OLD LOUISVILLE","TNZD","RLD","NQ2 Retail Drink (Restaurant)","ACTIVE","2016-04-12 08:37:28","Codes and Regulations","1206998","271232"
"94","16ABC1028","Alcoholic Beverage Annual","VISA VIS BAR & GRILL","1164 S 3RD ST ","1164","S","3RD","ST","-85.759012671999997","38.235063119499998","2018-10-31 16:36:00","RST","Restaurant / Cafe","2016-04-12 08:37:28","40203","06","OLD LOUISVILLE","TNZD","RLD4","NQ2 Restaurant Liquor Drink (12 am till 4 am)","INACTIVE","2016-04-12 08:37:28","Codes and Regulations","1206998","271232"
"95","3637","Alcoholic Beverage Annual","AMER LEGION SHAWNEE POST #193","2800 W MAIN ST ","2800","W","MAIN","ST","-85.797584503400003","38.260816534999996","2019-03-31 00:00:00","PRI","Private Club","2004-02-27 17:03:00","40212","05","PORTLAND","CR","PC2","NQ3 Private Club  (12 am till 2 am)","ACTIVE","","Codes and Regulations","1196078","280793"
"96","22957","Alcoholic Beverage Annual","SAVE-A-STEP","13702 LA GRANGE RD ","13702"," ","LA GRANGE","RD","-85.498189803000002","38.301226625200002","2019-02-28 00:00:00","GRO","Grocery / Food Mart","2009-01-29 12:31:44","40245","17","","C1","MBP","NQ Retail Malt Beverage Package","ACTIVE","","Codes and Regulations","1282233","294203"
"97","3652","Alcoholic Beverage Annual","LAKE FOREST COUNTRY CLUB","14700 LANDMARK DR ","14700"," ","LANDMARK","DR","-85.482559150100002","38.2656968617","2019-02-28 00:00:00","CLB","Country Club","2004-03-01 11:12:00","40245","19","","R4","SBPC","NQ3 Supplemental Bar -(Private Club)","ACTIVE","","Codes and Regulations","1286545","281205"
"98","16ABC1038","Alcoholic Beverage Annual","ST ANDREWS LIQUOR","7835 ST ANDREWS CHURCH RD ","7835"," ","ST ANDREWS CHURCH","RD","-85.821731365999995","38.1503105902","2019-02-28 00:00:00","LIQ","Liquor Store","2016-03-21 09:37:08","40214","25","","C1","MBP","NQ Retail Malt Beverage Package","ACTIVE","","Codes and Regulations","1188459","240674"
"99","16ABC1058","Alcoholic Beverage Annual","THE LOUISVILLE ZOO","1100 TREVILIAN WAY ","1100"," ","TREVILIAN","WAY","-85.707423113100006","38.205508503300003","2019-02-28 00:00:00","CCC","Convention Center Complex","2016-05-09 11:56:48","40213","10","POPLAR LEVEL","R5","CCC","NQ1 Retail Drink (Convention Center or Convention Hotel Complex)","ACTIVE","2016-05-09 11:56:00","Codes and Regulations","1221644","260232"
"100","16ABC1078","Alcoholic Beverage Annual","TIME 4 THAI","2206 FRANKFORT AVE ","2206"," ","FRANKFORT","AVE","-85.705736696000002","38.2533710465","2018-09-30 00:00:00","RST","Restaurant / Cafe","2016-06-13 14:41:41","40206","09","CLIFTON","C2","RLD","NQ2 Retail Drink (Restaurant)","ACTIVE","","Codes and Regulations","1222404","277652"
"101","16ABC1079","Alcoholic Beverage Annual","BOURBON RAW","446 S 4TH ST 125","446","S","4TH","ST","-85.757669023399998","38.251690557000003","2018-11-30 00:00:00","BAR","Bar","2016-06-09 12:42:13","40202","04","CENTRAL BUSINESS DISTRICT","(C3)","MBRD","NQ4 Retail Malt Beverage Drink","ACTIVE","","Codes and Regulations","1207483","277280"
"102","16ABC1082","Alcoholic Beverage Annual","COSTCO WHOLESALE # 1238","3408 BARDSTOWN RD ","3408"," ","BARDSTOWN","RD","-85.667440166099993","38.204493168399999","2019-01-31 00:00:00","RET","Retail","2016-08-11 16:52:30","40218","10","","C2","MBP","NQ Retail Malt Beverage Package","ACTIVE","2016-08-11 16:52:29","Codes and Regulations","1233126","259683"
"103","16ABC1089","Alcoholic Beverage Annual","THE 502","10401 MEETING ST ","10401"," ","MEETING","ST","-85.564501735899995","38.321579956299999","2019-02-28 00:00:00","RST","Restaurant / Cafe","2016-07-11 11:08:47","40059","16","","PVD","LP2","Quota Retail Package (12 AM - 2 AM)","ACTIVE","","Codes and Regulations","1263311","301879"
"104","16ABC1090","Alcoholic Beverage Annual","PHO BA LUU","1019 E MAIN ST ","1019","E","MAIN","ST","-85.7328406062","38.254254952300002","2018-09-30 00:00:00","RST","Restaurant / Cafe","2016-08-25 14:22:39","40206","04","BUTCHERTOWN","CM","RLD","NQ2 Retail Drink (Restaurant)","ACTIVE","","Codes and Regulations","1214627","278098"
"105","5553","Alcoholic Beverage Annual","CIRCLE K #3231","2100 PORTLAND AVE ","2100"," ","PORTLAND","AVE","-85.783174843300003","38.268259757999999","2018-08-31 00:00:00","GRO","Grocery / Food Mart","2004-08-02 09:47:00","40212","05","PORTLAND","C2","MBP","NQ Retail Malt Beverage Package","ACTIVE","","Codes and Regulations","1200260","283434"
"106","5842","Alcoholic Beverage Annual","BETTER BARGAINS SALVAGE FOOD","7207 LOWER HUNTERS TRCE ","7207"," ","LOWER HUNTERS","TRCE","-85.881149085600001","38.175594292900001","2018-09-30 00:00:00","GRO","Grocery / Food Mart","2004-08-24 08:01:36","40258","01","","C1","MBP","NQ Retail Malt Beverage Package","ACTIVE","","Codes and Regulations","1171538","250177"
"107","5844","Alcoholic Beverage Annual","BONNIE & CLYDE'S PIZZA PARLOR","7611 DIXIE HWY ","7611"," ","DIXIE","HWY","-85.840676182099998","38.140152818200001","2018-09-30 00:00:00","RST","Restaurant / Cafe","2004-08-24 08:20:00","40258","25","","C2","MBRD2","NQ4 Retail Malt Beverage Drink (12 am till 2 am)","ACTIVE","","Codes and Regulations","1182948","237069"
"108","5848","Alcoholic Beverage Annual","BEVERAGE WORLD","2332 BROWNSBORO RD ","2332"," ","BROWNSBORO","RD","-85.701999994000005","38.258091841300001","2018-09-30 00:00:00","LIQ","Liquor Store","2004-08-24 09:00:00","40206","09","CLIFTON","C1","MBP","NQ Retail Malt Beverage Package","ACTIVE","","Codes and Regulations","1223504","279354"
"109","5912","Alcoholic Beverage Annual","TWIN DIXIE LANES","10526 DIXIE HWY ","10526"," ","DIXIE","HWY","-85.871247315199994","38.102423853300003","2018-09-30 00:00:00","AMU","Amusement","2004-08-25 14:27:00","40272","14","","C2","MBRD4","NQ4 Retail Malt Beverage Drink (12 am till 4 am)","ACTIVE","","Codes and Regulations","1173915","223485"
"110","28081","Alcoholic Beverage Annual","DEAL MASTER","6115 BLEVINS GAP RD ","6115"," ","BLEVINS GAP","RD","-85.879232396299997","38.070505615800002","2018-09-30 00:00:00","GRO","Grocery / Food Mart","2010-07-12 11:49:00","40272","14","","C2","MBP","NQ Retail Malt Beverage Package","ACTIVE","","Codes and Regulations","1171412","211904"
"111","18856","Alcoholic Beverage Annual","WAL-MART SUPERCENTER # 3610","7100 RAGGARD RD ","7100"," ","RAGGARD","RD","-85.870341595799999","38.171485150099997","2018-08-31 00:00:00","GRO","Grocery / Food Mart","2008-03-04 13:29:07","40216","01","","C2","MBP","NQ Retail Malt Beverage Package","ACTIVE","","Codes and Regulations","1174618","248626"
"112","18856","Alcoholic Beverage Annual","WAL-MART SUPERCENTER # 3610","7100 RAGGARD RD ","7100"," ","RAGGARD","RD","-85.870341595799999","38.171485150099997","2018-08-31 00:00:00","GRO","Grocery / Food Mart","2008-03-04 13:29:07","40216","01","","C2","MBP2","NQ Retail Malt Beverage Package (12 am till 2 am)","ACTIVE","","Codes and Regulations","1174618","248626"
"113","14ABC1160","Alcoholic Beverage Annual","MI PREFERIDA 3","8104 NATIONAL TPKE 107","8104"," ","NATIONAL","TPKE","-85.752096328500002","38.132121549600001","2019-02-28 00:00:00","GRO","Grocery / Food Mart","2014-10-27 10:50:13","40214","13","","C2","MBP","NQ Retail Malt Beverage Package","ACTIVE","2014-10-27 10:50:13","Codes and Regulations","1208373","233717"
"114","19852","Alcoholic Beverage Annual","WAL-MART NBRHD MARKET #4524","5360 DIXIE HWY ","5360"," ","DIXIE","HWY","-85.836042141999997","38.157282305000003","2018-08-31 00:00:00","GRO","Grocery / Food Mart","2008-02-26 16:06:00","40216","12","","C2","MBP","NQ Retail Malt Beverage Package","ACTIVE","","Codes and Regulations","1184388","243283"
"115","24051","Alcoholic Beverage Annual","CAFE MIMOSA/EGG ROLL MACHINE","1543 BARDSTOWN RD ","1543"," ","BARDSTOWN","RD","-85.706766830800007","38.231629068799997","2019-01-31 00:00:00","RST","Restaurant / Cafe","2009-10-05 15:14:42","40205","08","BONNYCASTLE","(C2)","LD4","Quota Retail Drink (12 AM - 4 AM)","ACTIVE","","Codes and Regulations","1221983","269740"
"116","19852","Alcoholic Beverage Annual","WAL-MART NBRHD MARKET #4524","5360 DIXIE HWY ","5360"," ","DIXIE","HWY","-85.836042141999997","38.157282305000003","2018-08-31 00:00:00","GRO","Grocery / Food Mart","2008-02-26 16:06:00","40216","12","","C2","MBP2","NQ Retail Malt Beverage Package (12 am till 2 am)","ACTIVE","","Codes and Regulations","1184388","243283"
"117","26761","Alcoholic Beverage Annual","SMYRNA INN","8201 SMYRNA PKY ","8201"," ","SMYRNA","PKY","-85.642355265099994","38.130303372100002","2019-01-31 00:00:00","BAR","Bar","2010-02-10 14:38:09","40228","23","","R4","MBRD2","NQ4 Retail Malt Beverage Drink (12 am till 2 am)","ACTIVE","","Codes and Regulations","1239925","232559"
"118","24235","Alcoholic Beverage Annual","LIQUOR BARN","4301 TOWNE CENTER DR ","4301"," ","TOWNE CENTER","DR","-85.558573013900002","38.299212236700001","2018-08-31 00:00:00","LIQ","Liquor Store","2009-09-16 12:09:44","40241","17","","C2","MBCO","NQ Retail Malt Beverage Combo (Package and Drink)","ACTIVE","","Codes and Regulations","1264896","293710"
"119","3240","Alcoholic Beverage Annual","OHIO VALLEY VOLLEYBALL CENTER","1820 TAYLOR AVE ","1820"," ","TAYLOR","AVE","-85.703527952399995","38.200264839600003","2019-02-28 00:00:00","BAR","Bar","2004-02-11 14:02:00","40213","10","POPLAR LEVEL","CM","MBRD2","NQ4 Retail Malt Beverage Drink (12 am till 2 am)","ACTIVE","","Codes and Regulations","1222733","258305"
"120","24849","Alcoholic Beverage Annual","CIRCLE K # 3312","14000 TAYLORSVILLE RD ","14000"," ","TAYLORSVILLE","RD","-85.486102060999997","38.190216939499997","2018-08-31 00:00:00","GRO","Grocery / Food Mart","2009-10-22 14:07:00","40299","20","","(C1)","MBP","NQ Retail Malt Beverage Package","ACTIVE","","Codes and Regulations","1285159","253734"
"121","3313","Alcoholic Beverage Annual","KOREANA II RESTAURANT","5009 PRESTON HWY ","5009"," ","PRESTON","HWY","-85.712564307500003","38.176305231299999","2019-02-28 00:00:00","RST","Restaurant / Cafe","2004-02-16 11:17:00","40213","21","","C1","MBRD","NQ4 Retail Malt Beverage Drink","ACTIVE","","Codes and Regulations","1219998","249622"
"122","26981","Alcoholic Beverage Annual","CIRCLE K #3315","5929 NEW CUT RD ","5929"," ","NEW CUT","RD","-85.775444851499998","38.126825443599998","2018-08-31 00:00:00","GRO","Grocery / Food Mart","2010-03-23 10:05:36","40214","13","","C1","MBP","NQ Retail Malt Beverage Package","ACTIVE","","Codes and Regulations","1201626","231899"
"123","26981","Alcoholic Beverage Annual","CIRCLE K #3315","5929 NEW CUT RD ","5929"," ","NEW CUT","RD","-85.775444851499998","38.126825443599998","2018-08-31 00:00:00","GRO","Grocery / Food Mart","2010-03-23 10:05:36","40214","13","","C1","MBP2","NQ Retail Malt Beverage Package (12 am till 2 am)","ACTIVE","","Codes and Regulations","1201626","231899"
"124","28224","Alcoholic Beverage Annual","THORNTONS #158","4900 BROWNSBORO RD ","4900"," ","BROWNSBORO","RD","-85.634719434999994","38.2807831999","2018-08-31 00:00:00","GRO","Grocery / Food Mart","2010-08-13 11:08:00","40222","07","","C1","MBP2","NQ Retail Malt Beverage Package (12 am till 2 am)","ACTIVE","","Codes and Regulations","1242945","287319"
"125","29731","Alcoholic Beverage Annual","CIRCLE K # 3325","9737 3RD STREET RD ","9737"," ","3RD STREET","RD","-85.834845213099996","38.114811149700003","2018-08-31 00:00:00","GRO","Grocery / Food Mart","2010-11-08 13:42:27","40272","25","","C1","MBP","NQ Retail Malt Beverage Package","ACTIVE","","Codes and Regulations","1184466","227813"
"126","29731","Alcoholic Beverage Annual","CIRCLE K # 3325","9737 3RD STREET RD ","9737"," ","3RD STREET","RD","-85.834845213099996","38.114811149700003","2018-08-31 00:00:00","GRO","Grocery / Food Mart","2010-11-08 13:42:27","40272","25","","C1","MBP2","NQ Retail Malt Beverage Package (12 am till 2 am)","ACTIVE","","Codes and Regulations","1184466","227813"
"127","5638","Alcoholic Beverage Annual","MEIJER PARTY STORE #162","9907 DIXIE HWY ","9907"," ","DIXIE","HWY","-85.861128306699996","38.111314391800001","2018-08-31 00:00:00","LIQ","Liquor Store","2004-08-03 08:42:00","40272","25","","C1","MBP","NQ Retail Malt Beverage Package","ACTIVE","","Codes and Regulations","1176883","226671"
"128","14ABC1205","Alcoholic Beverage Annual","MARK'S FEED STORE","10316 DIXIE HWY ","10316"," ","DIXIE","HWY","-85.869315958200005","38.104505058199997","2018-07-31 00:00:00","RST","Restaurant / Cafe","2014-12-30 13:10:37","40272","14","","C1","RLD","NQ2 Retail Drink (Restaurant)","ACTIVE","2014-12-30 13:10:37","Codes and Regulations","1174484","224233"
"129","14ABC1205","Alcoholic Beverage Annual","MARK'S FEED STORE","10316 DIXIE HWY ","10316"," ","DIXIE","HWY","-85.869315958200005","38.104505058199997","2018-07-31 00:00:00","RST","Restaurant / Cafe","2014-12-30 13:10:37","40272","14","","C1","SD","Sunday Drink","ACTIVE","2014-12-30 13:10:37","Codes and Regulations","1174484","224233"
"130","15ABC1051","Alcoholic Beverage Annual","KOSAIR SHRINE CLUB","4120 BARDSTOWN RD ","4120"," ","BARDSTOWN","RD","-85.646979284799997","38.191488788699999","2019-01-31 00:00:00","PRI","Private Club","2015-04-09 15:46:27","40218","02","","C2","PC","NQ3 Retail Drink (Private Club)","ACTIVE","","Codes and Regulations","1238933","254858"
"131","4239","Alcoholic Beverage Annual","AMERICAN TURNERS LOUISVILLE","3125 RIVER RD ","3125"," ","RIVER","RD","-85.697753982999998","38.282191493200003","2018-05-31 00:00:00","PRI","Private Club","2004-06-01 12:28:00","40207","07","","R4","PC","NQ3 Retail Drink (Private Club)","ACTIVE","","Codes and Regulations","1224861","288110"
"132","15ABC1075","Alcoholic Beverage Annual","LA COCINA DE MAMA","2809 N HURSTBOURNE PKY 117","2809","N","HURSTBOURNE","PKY","-85.569931874399998","38.286646623899998","2019-01-31 00:00:00","RST","Restaurant / Cafe","2015-06-01 13:15:53","40223","17","","C1","RLD","NQ2 Retail Drink (Restaurant)","ACTIVE","2015-06-01 13:15:53","Codes and Regulations","1261571","289181"
"133","15ABC1121","Alcoholic Beverage Annual","XSCAPE THEATERS","12450 SYCAMORE STATION PL ","12450"," ","SYCAMORE STATION","PL","-85.531570338400002","38.222352302200001","2019-02-28 00:00:00","AMU","Amusement","2015-09-16 09:45:42","40299","20","","C2","LD2","Quota Retail Drink (12 AM - 2 AM)","ACTIVE","2015-09-16 09:45:42","Codes and Regulations","1272255","265614"
"134","16ABC1003","Alcoholic Beverage Annual","CHILI'S TOO","600 TERMINAL DR ","600"," ","TERMINAL","DR","-85.741636358600005","38.186161950500001","2018-05-31 00:00:00","AIRPORT","Airport","2016-02-09 11:29:15","40209","21","REMAINDER OF CITY","EZ1","ESL","Extended Hours Supplement","ACTIVE","2016-02-09 11:29:15","Codes and Regulations","1211700","253345"
"135","16ABC1015","Alcoholic Beverage Annual","MAIN EVENT ENTERTAINMENT","12500 SYCAMORE STATION PL ","12500"," ","SYCAMORE STATION","PL","-85.5291289253","38.222488928099999","2019-02-28 00:00:00","RST","Restaurant / Cafe","2016-03-09 15:35:00","40299","20","","C2","RLD2","NQ2 Restaurant Liquor Drink (12 am till 2 am)","ACTIVE","2016-03-09 15:35:00","Codes and Regulations","1272957","265654"
"136","33685","Alcoholic Beverage Annual","NORTH END CAFE HIGHLANDS","2116 BARDSTOWN RD ","2116"," ","BARDSTOWN","RD","-85.694764123300004","38.224747549500002","2019-01-31 00:00:00","RST","Restaurant / Cafe","2011-11-14 12:03:42","40205","08","DEER PARK","(C2)","MBRD2","NQ4 Retail Malt Beverage Drink (12 am till 2 am)","ACTIVE","","Codes and Regulations","1225391","267180"
"137","16ABC1025","Alcoholic Beverage Annual","ZEGGZ AMAZING EGGS","2400 LIME KILN LN ","2400"," ","LIME KILN","LN","-85.629214257100003","38.286450773699997","2019-01-31 00:00:00","RST","Restaurant / Cafe","2016-02-17 10:36:01","40222","07","","C1","RLD","NQ2 Retail Drink (Restaurant)","ACTIVE","","Codes and Regulations","1244556","289359"
"138","13ABC1104","Alcoholic Beverage Annual","LEGENDARY BAR & GRILL","2523 W BROADWAY ","2523","W","BROADWAY"," ","-85.794331577199998","38.249698257799999","2018-03-31 00:00:00","BAR","Bar","2014-01-27 16:06:33","40211","06","RUSSELL","C2","MBRD4","NQ4 Retail Malt Beverage Drink (12 am till 4 am)","ACTIVE","","Codes and Regulations","1196944","276729"
"139","ABC920982","Alcoholic Beverage Annual","METRO DINER","4901 OUTER LOOP 100","4901"," ","OUTER","LOOP","-85.667618053300004","38.1397457829","2019-02-28 00:00:00","RST","Restaurant / Cafe","2017-10-13 10:34:54","40219","24","","C2","SD","Sunday Drink","ACTIVE","2017-10-13 10:34:54","Codes and Regulations","1232712","236108"
"140","14ABC1119","Alcoholic Beverage Annual","AGAINST THE GRAIN MICROBREWERY","1800 NORTHWESTERN PKY ","1800"," ","NORTHWESTERN","PKY","-85.776725389700005","38.265875231800003","2018-10-31 00:00:00","MAN","Manufacturer","2014-09-04 11:15:38","40203","05","PORTLAND","EZ1","MCBW","Microbrewery","ACTIVE","2014-09-04 11:15:38","Codes and Regulations","1202097","282535"
"141","14ABC1121","Alcoholic Beverage Annual","HILTON GARDEN INN","350 W CHESTNUT ST ","350","W","CHESTNUT","ST","-85.757472821199997","38.248781933499998","2018-11-30 00:00:00","HOT","Hotels","2014-10-27 09:01:37","40202","04","CENTRAL BUSINESS DISTRICT","(C3)","MBP","NQ Retail Malt Beverage Package","ACTIVE","2014-10-27 09:01:37","Codes and Regulations","1207522","276220"
"142","5638","Alcoholic Beverage Annual","MEIJER PARTY STORE #162","9907 DIXIE HWY ","9907"," ","DIXIE","HWY","-85.861128306699996","38.111314391800001","2018-08-31 00:00:00","LIQ","Liquor Store","2004-08-03 08:42:00","40272","25","","C1","LP","Quota Retail Package","ACTIVE","","Codes and Regulations","1176883","226671"
"143","17247","Alcoholic Beverage Annual","MORE SHENANGIANS","4521 BARDSTOWN RD ","4521"," ","BARDSTOWN","RD","-85.627886827899999","38.182191513600003","2019-01-31 00:00:00","BAR","Bar","2006-10-09 11:17:00","40218","02","","C2","MBRD","NQ4 Retail Malt Beverage Drink","ACTIVE","","Codes and Regulations","1244369","251390"
"144","5643","Alcoholic Beverage Annual","MEIJER PARTY STORE #160","4502 S HURSTBOURNE PKY ","4502","S","HURSTBOURNE","PKY","-85.607887571199996","38.187781297900003","2018-08-31 00:00:00","LIQ","Liquor Store","2004-08-03 08:59:00","40299","11","","C1","LP","Quota Retail Package","ACTIVE","","Codes and Regulations","1250147","253340"
"145","5644","Alcoholic Beverage Annual","MEIJER PARTY STORE #166","9500 PRESTON HWY ","9500"," ","PRESTON","HWY","-85.679632639199994","38.112517189499997","2018-08-31 00:00:00","LIQ","Liquor Store","2004-08-03 09:02:00","40229","24","","C1","LP","Quota Retail Package","ACTIVE","","Codes and Regulations","1229103","226247"
"146","20962","Alcoholic Beverage Annual","QUEEN OF SHEBA","2804 TAYLORSVILLE RD ","2804"," ","TAYLORSVILLE","RD","-85.667709209400002","38.222566318600002","2019-01-31 00:00:00","RST","Restaurant / Cafe","2008-07-01 08:44:00","40205","08","HAWTHORNE","C1","RLD","NQ2 Retail Drink (Restaurant)","ACTIVE","","Codes and Regulations","1233150","266265"
"147","5646","Alcoholic Beverage Annual","MEIJER PARTY STORE #164","4102 TOWNE CENTER DR ","4102"," ","TOWNE CENTER","DR","-85.554037245900005","38.299301382199999","2018-08-31 00:00:00","LIQ","Liquor Store","2004-08-03 09:21:00","40241","17","","C2","LP","Quota Retail Package","ACTIVE","","Codes and Regulations","1266198","293724"
"148","22842","Alcoholic Beverage Annual","MY LUCKY LIQUOR","3705 KLONDIKE LN ","3705"," ","KLONDIKE","LN","-85.639677416599994","38.210899161100002","2019-01-31 00:00:00","GRO","Grocery / Food Mart","2009-01-07 13:32:34","40218","26","","C1","MBP","NQ Retail Malt Beverage Package","ACTIVE","","Codes and Regulations","1241138","261894"
"149","22932","Alcoholic Beverage Annual","D & M CORNER TAVERN","5207 MOUNT WASHINGTON RD ","5207"," ","MOUNT WASHINGTON","RD","-85.667817388100005","38.093063438999998","2019-01-31 00:00:00","BAR","Bar","2009-01-29 09:36:00","40229","23","","C2","MBRD4","NQ4 Retail Malt Beverage Drink (12 am till 4 am)","ACTIVE","","Codes and Regulations","1232393","219111"
"150","23871","Alcoholic Beverage Annual","RAINBOW BLOSSOM","3046 BARDSTOWN RD ","3046"," ","BARDSTOWN","RD","-85.673799188800004","38.212855288","2019-01-31 00:00:00","GRO","Grocery / Food Mart","2009-07-02 15:36:50","40205","08","GARDINER LANE","C1","MBP","NQ Retail Malt Beverage Package","ACTIVE","","Codes and Regulations","1231346","262756"
"151","26761","Alcoholic Beverage Annual","SMYRNA INN","8201 SMYRNA PKY ","8201"," ","SMYRNA","PKY","-85.642355265099994","38.130303372100002","2019-01-31 00:00:00","BAR","Bar","2010-02-10 14:38:09","40228","23","","R4","MBRD","NQ4 Retail Malt Beverage Drink","ACTIVE","","Codes and Regulations","1239925","232559"
"152","5656","Alcoholic Beverage Annual","TUMBLEWEED SOUTHWEST GRILL","9701 DIXIE HWY ","9701"," ","DIXIE","HWY","-85.860135857000003","38.115162159500002","2018-08-31 00:00:00","RST","Restaurant / Cafe","2004-08-03 11:02:00","40272","25","","C1","RLD","NQ2 Retail Drink (Restaurant)","ACTIVE","","Codes and Regulations","1177193","228067"
"153","26761","Alcoholic Beverage Annual","SMYRNA INN","8201 SMYRNA PKY ","8201"," ","SMYRNA","PKY","-85.642355265099994","38.130303372100002","2019-01-31 00:00:00","BAR","Bar","2010-02-10 14:38:09","40228","23","","R4","LD2","Quota Retail Drink (12 AM - 2 AM)","ACTIVE","","Codes and Regulations","1239925","232559"
"154","26821","Alcoholic Beverage Annual","ZOES KITCHEN","4126 SUMMIT PLAZA DR ","4126"," ","SUMMIT PLAZA","DR","-85.577838886899997","38.306324741200001","2019-01-31 00:00:00","RST","Restaurant / Cafe","2010-07-08 08:21:00","40241","16","","C2","RLD","NQ2 Retail Drink (Restaurant)","ACTIVE","","Codes and Regulations","1259405","296379"
"155","28255","Alcoholic Beverage Annual","MR G'S SPORTS BAR","10432 SHELBYVILLE RD ","10432"," ","SHELBYVILLE","RD","-85.561243567399998","38.244105705899997","2019-01-31 00:00:00","BAR","Bar","2010-08-24 16:45:28","40223","19","","C1","MBRD","NQ4 Retail Malt Beverage Drink","ACTIVE","","Codes and Regulations","1263844","273655"
"156","28255","Alcoholic Beverage Annual","MR G'S SPORTS BAR","10432 SHELBYVILLE RD ","10432"," ","SHELBYVILLE","RD","-85.561243567399998","38.244105705899997","2019-01-31 00:00:00","BAR","Bar","2010-08-24 16:45:28","40223","19","","C1","MBRD4","NQ4 Retail Malt Beverage Drink (12 am till 4 am)","ACTIVE","","Codes and Regulations","1263844","273655"
"157","14ABC1186","Alcoholic Beverage Annual","KAIJU","1004 E OAK ST ","1004","E","OAK","ST","-85.737055267499997","38.232672605899999","2018-10-31 00:00:00","BAR","Bar","2014-12-09 12:03:10","40204","10","GERMANTOWN","R6","SD","Sunday Drink","ACTIVE","2014-12-09 12:03:10","Codes and Regulations","1213290","270259"
"158","14ABC1207","Alcoholic Beverage Annual","EAT A PITA","2286 BARDSTOWN RD ","2286"," ","BARDSTOWN","RD","-85.691186066","38.223912941400002","2019-01-31 00:00:00","RST","Restaurant / Cafe","2015-01-23 14:06:41","40205","08","BELKNAP","(C2)","SD","Sunday Drink","ACTIVE","","Codes and Regulations","1226414","266860"
"159","5656","Alcoholic Beverage Annual","TUMBLEWEED SOUTHWEST GRILL","9701 DIXIE HWY ","9701"," ","DIXIE","HWY","-85.860135857000003","38.115162159500002","2018-08-31 00:00:00","RST","Restaurant / Cafe","2004-08-03 11:02:00","40272","25","","C1","SD","Sunday Drink","ACTIVE","","Codes and Regulations","1177193","228067"
"160","5660","Alcoholic Beverage Annual","O'CHARLEY'S RESTAURANT #265","10641 FISCHER PARK DR ","10641"," ","FISCHER PARK","DR","-85.5549903255","38.2962945668","2018-08-31 00:00:00","RST","Restaurant / Cafe","2004-08-03 11:29:00","40241","17","","C2","RLD","NQ2 Retail Drink (Restaurant)","ACTIVE","","Codes and Regulations","1265909","292633"
"161","34533","Alcoholic Beverage Annual","CIRCLE K #3330","9110 BLUE LICK RD ","9110"," ","BLUE LICK","RD","-85.690341790000005","38.116878422399999","2018-08-31 00:00:00","GRO","Grocery / Food Mart","2012-03-28 10:38:21","40219","24","","C1","MBP","NQ Retail Malt Beverage Package","ACTIVE","","Codes and Regulations","1226047","227883"
"162","5660","Alcoholic Beverage Annual","O'CHARLEY'S RESTAURANT #265","10641 FISCHER PARK DR ","10641"," ","FISCHER PARK","DR","-85.5549903255","38.2962945668","2018-08-31 00:00:00","RST","Restaurant / Cafe","2004-08-03 11:29:00","40241","17","","C2","SD","Sunday Drink","ACTIVE","","Codes and Regulations","1265909","292633"
"163","34533","Alcoholic Beverage Annual","CIRCLE K #3330","9110 BLUE LICK RD ","9110"," ","BLUE LICK","RD","-85.690341790000005","38.116878422399999","2018-08-31 00:00:00","GRO","Grocery / Food Mart","2012-03-28 10:38:21","40219","24","","C1","MBP2","NQ Retail Malt Beverage Package (12 am till 2 am)","ACTIVE","","Codes and Regulations","1226047","227883"
"164","5661","Alcoholic Beverage Annual","O'CHARLEY'S RESTAURANT #215","1901 S HURSTBOURNE PKY ","1901","S","HURSTBOURNE","PKY","-85.584258094600003","38.218139663800002","2018-08-31 00:00:00","RST","Restaurant / Cafe","2004-08-03 11:35:00","40220","18","","C1","RLD","NQ2 Retail Drink (Restaurant)","ACTIVE","","Codes and Regulations","1257098","264295"
"165","5661","Alcoholic Beverage Annual","O'CHARLEY'S RESTAURANT #215","1901 S HURSTBOURNE PKY ","1901","S","HURSTBOURNE","PKY","-85.584258094600003","38.218139663800002","2018-08-31 00:00:00","RST","Restaurant / Cafe","2004-08-03 11:35:00","40220","18","","C1","SD","Sunday Drink","ACTIVE","","Codes and Regulations","1257098","264295"
"166","5576","Alcoholic Beverage Annual","THORNTON OIL #96","4516 POPLAR LEVEL RD ","4516"," ","POPLAR LEVEL","RD","-85.702490374600004","38.187007334400001","2018-08-31 00:00:00","GRO","Grocery / Food Mart","2004-08-02 10:59:00","40213","21","","M2","MBP","NQ Retail Malt Beverage Package","ACTIVE","","Codes and Regulations","1222955","253473"
"167","5664","Alcoholic Beverage Annual","O'CHARLEY'S RESTAURANT #218","4801 OUTER LOOP ","4801"," ","OUTER","LOOP","-85.669933122700002","38.141662038299998","2018-08-31 00:00:00","RST","Restaurant / Cafe","2004-08-03 11:44:00","40219","24","","C2","RLD","NQ2 Retail Drink (Restaurant)","ACTIVE","","Codes and Regulations","1232057","236816"
"168","5581","Alcoholic Beverage Annual","CIRCLE K #119","8801 3RD STREET RD ","8801"," ","3RD STREET","RD","-85.811516858299996","38.116142160599999","2018-08-31 00:00:00","GRO","Grocery / Food Mart","2004-08-02 11:08:00","40272","25","","C1","MBP","NQ Retail Malt Beverage Package","ACTIVE","","Codes and Regulations","1191185","228183"
"169","5581","Alcoholic Beverage Annual","CIRCLE K #119","8801 3RD STREET RD ","8801"," ","3RD STREET","RD","-85.811516858299996","38.116142160599999","2018-08-31 00:00:00","GRO","Grocery / Food Mart","2004-08-02 11:08:00","40272","25","","C1","MBP2","NQ Retail Malt Beverage Package (12 am till 2 am)","ACTIVE","","Codes and Regulations","1191185","228183"
"170","5587","Alcoholic Beverage Annual","THORNTON OIL #26","14101 SHELBYVILLE RD ","14101"," ","SHELBYVILLE","RD","-85.487237600699999","38.239349286600003","2018-08-31 00:00:00","GRO","Grocery / Food Mart","2004-08-02 11:33:00","40245","19","","(C1)","MBP","NQ Retail Malt Beverage Package","ACTIVE","","Codes and Regulations","1285073","271629"
"171","5664","Alcoholic Beverage Annual","O'CHARLEY'S RESTAURANT #218","4801 OUTER LOOP ","4801"," ","OUTER","LOOP","-85.669933122700002","38.141662038299998","2018-08-31 00:00:00","RST","Restaurant / Cafe","2004-08-03 11:44:00","40219","24","","C2","SD","Sunday Drink","ACTIVE","","Codes and Regulations","1232057","236816"
"172","5587","Alcoholic Beverage Annual","THORNTON OIL #26","14101 SHELBYVILLE RD ","14101"," ","SHELBYVILLE","RD","-85.487237600699999","38.239349286600003","2018-08-31 00:00:00","GRO","Grocery / Food Mart","2004-08-02 11:33:00","40245","19","","(C1)","MBP2","NQ Retail Malt Beverage Package (12 am till 2 am)","ACTIVE","","Codes and Regulations","1285073","271629"
"173","5665","Alcoholic Beverage Annual","TUMBLEWEED SOUTHWEST GRILL","3602 BUECHEL BYP ","3602"," ","BUECHEL","BYP","-85.662960969799997","38.199845742000001","2018-08-31 00:00:00","RST","Restaurant / Cafe","2004-08-03 12:01:00","40218","10","","C2","RLD","NQ2 Retail Drink (Restaurant)","ACTIVE","","Codes and Regulations","1234387","257971"
"174","5665","Alcoholic Beverage Annual","TUMBLEWEED SOUTHWEST GRILL","3602 BUECHEL BYP ","3602"," ","BUECHEL","BYP","-85.662960969799997","38.199845742000001","2018-08-31 00:00:00","RST","Restaurant / Cafe","2004-08-03 12:01:00","40218","10","","C2","SD","Sunday Drink","ACTIVE","","Codes and Regulations","1234387","257971"
"175","5672","Alcoholic Beverage Annual","RAFFERTY'S RESTAURANT & BAR","3601 SPRINGHURST BLVD ","3601"," ","SPRINGHURST","BLVD","-85.559519764200004","38.299341692100001","2018-08-31 00:00:00","RST","Restaurant / Cafe","2004-08-03 14:03:00","40241","17","","C2","RLD","NQ2 Retail Drink (Restaurant)","ACTIVE","","Codes and Regulations","1264625","293761"
"176","5672","Alcoholic Beverage Annual","RAFFERTY'S RESTAURANT & BAR","3601 SPRINGHURST BLVD ","3601"," ","SPRINGHURST","BLVD","-85.559519764200004","38.299341692100001","2018-08-31 00:00:00","RST","Restaurant / Cafe","2004-08-03 14:03:00","40241","17","","C2","SD","Sunday Drink","ACTIVE","","Codes and Regulations","1264625","293761"
"177","14ABC1114","Alcoholic Beverage Annual","CIAO","1201 PAYNE ST ","1201"," ","PAYNE","ST","-85.727385584299995","38.247364808199997","2018-10-31 00:00:00","RST","Restaurant / Cafe","2015-01-23 11:00:48","40204","04","IRISH HILL","C1","LD","Quota Retail Drink","ACTIVE","2015-01-23 11:00:47","Codes and Regulations","1216153","275564"
"178","15ABC1119","Alcoholic Beverage Annual","WALGREENS #06443","990 BAXTER AVE ","990"," ","BAXTER","AVE","-85.724255210400003","38.239665125800002","2018-08-31 00:00:00","DRG","Drug Store","2015-07-29 17:39:50","40204","08","HIGHLANDS","(C2)","MBP","NQ Retail Malt Beverage Package","ACTIVE","2015-07-29 17:39:50","Codes and Regulations","1217007","272746"
"179","15ABC1163","Alcoholic Beverage Annual","LIQUOR BARN EXPRESS","4808 BROWNSBORO CTR ","4808"," ","BROWNSBORO","CTR","-85.636720788399998","38.277760495099997","2018-08-31 00:00:00","LIQ","Liquor Store","2015-10-02 12:54:56","40207","07","","C1","LP","Quota Retail Package","ACTIVE","2015-10-02 12:54:55","Codes and Regulations","1242354","286227"
"180","15ABC1163","Alcoholic Beverage Annual","LIQUOR BARN EXPRESS","4808 BROWNSBORO CTR ","4808"," ","BROWNSBORO","CTR","-85.636720788399998","38.277760495099997","2018-08-31 00:00:00","LIQ","Liquor Store","2015-10-02 12:54:56","40207","07","","C1","MBP","NQ Retail Malt Beverage Package","ACTIVE","2015-10-02 12:54:56","Codes and Regulations","1242354","286227"
"181","36804","Alcoholic Beverage Annual","LA CARRETA","10105 DIXIE HWY 102","10105"," ","DIXIE","HWY","-85.864678440099993","38.108227683000003","2018-09-30 00:00:00","RST","Restaurant / Cafe","2013-02-08 12:30:58","40272","25","","C1","SD","Sunday Drink","ACTIVE","","Codes and Regulations","1175842","225565"
"182","6453","Alcoholic Beverage Annual","J. R.'S QUICK MART","701 CAMP ST ","701"," ","CAMP","ST","-85.743683713400003","38.2314400148","2018-10-31 00:00:00","BAR","Bar","2004-10-04 14:26:00","40203","04","SHELBY PARK","R6","LD2","Quota Retail Drink (12 AM - 2 AM)","INACTIVE","","Codes and Regulations","1211379","269841"
"183","36805","Alcoholic Beverage Annual","DIORIO'S PIZZA AND PUB","919 BAXTER AVE ","919"," ","BAXTER","AVE","-85.725399557900005","38.242344852700001","2018-10-31 00:00:00","RST","Restaurant / Cafe","2013-02-25 15:52:40","40204","08","CHEROKEE TRIANGLE","(C2)","RLD","NQ2 Retail Drink (Restaurant)","ACTIVE","","Codes and Regulations","1216694","273727"
"184","36805","Alcoholic Beverage Annual","DIORIO'S PIZZA AND PUB","919 BAXTER AVE ","919"," ","BAXTER","AVE","-85.725399557900005","38.242344852700001","2018-10-31 00:00:00","RST","Restaurant / Cafe","2013-02-25 15:52:40","40204","08","CHEROKEE TRIANGLE","(C2)","SD","Sunday Drink","ACTIVE","","Codes and Regulations","1216694","273727"
"185","36806","Alcoholic Beverage Annual","LIQUOR PALACE 7","344 E LEE ST ","344","E","LEE","ST","-85.752066033800006","38.222090918699998","2018-05-31 00:00:00","LIQ","Liquor Store","2013-06-24 07:53:04","40208","06","OLD LOUISVILLE","EZ1","LP","Quota Retail Package","ACTIVE","","Codes and Regulations","1208916","266476"
"186","36806","Alcoholic Beverage Annual","LIQUOR PALACE 7","344 E LEE ST ","344","E","LEE","ST","-85.752066033800006","38.222090918699998","2018-05-31 00:00:00","LIQ","Liquor Store","2013-06-24 07:53:04","40208","06","OLD LOUISVILLE","EZ1","LP2","Quota Retail Package (12 AM - 2 AM)","ACTIVE","","Codes and Regulations","1208916","266476"
"187","15ABC1095","Alcoholic Beverage Annual","WALGREENS #09005","200 E BROADWAY ","200","E","BROADWAY"," ","-85.751335597299999","38.245202824099998","2018-08-31 00:00:00","DRG","Drug Store","2015-07-29 18:27:09","40202","04","CENTRAL BUSINESS DISTRICT","C3","LP","Quota Retail Package","ACTIVE","2015-07-29 18:27:09","Codes and Regulations","1209263","274888"
"188","15ABC1112","Alcoholic Beverage Annual","WALGREENS #12322","808 EASTERN PKY ","808"," ","EASTERN","PKY","-85.742014854000004","38.214604110499998","2018-08-31 00:00:00","DRG","Drug Store","2015-07-29 17:27:23","40217","10","SCHNITZELBURG","C1","MBP","NQ Retail Malt Beverage Package","ACTIVE","2015-07-29 17:27:23","Codes and Regulations","1211759","263703"
"189","36813","Alcoholic Beverage Annual","OLD RASCALS","1102 W ASHLAND AVE ","1102","W","ASHLAND","AVE","-85.779298757500001","38.186278624700002","2019-02-28 00:00:00","BAR","Bar","2013-02-27 15:41:00","40215","21","BEECHMONT","C1","LD","Quota Retail Drink","ACTIVE","","Codes and Regulations","1200877","253565"
"190","36813","Alcoholic Beverage Annual","OLD RASCALS","1102 W ASHLAND AVE ","1102","W","ASHLAND","AVE","-85.779298757500001","38.186278624700002","2019-02-28 00:00:00","BAR","Bar","2013-02-27 15:41:00","40215","21","BEECHMONT","C1","LD4","Quota Retail Drink (12 AM - 4 AM)","ACTIVE","","Codes and Regulations","1200877","253565"
"191","36813","Alcoholic Beverage Annual","OLD RASCALS","1102 W ASHLAND AVE ","1102","W","ASHLAND","AVE","-85.779298757500001","38.186278624700002","2019-02-28 00:00:00","BAR","Bar","2013-02-27 15:41:00","40215","21","BEECHMONT","C1","SD","Sunday Drink","ACTIVE","","Codes and Regulations","1200877","253565"
"192","36441","Alcoholic Beverage Annual","ABYSSINIA ETHIOPIAN RESTAURANT","554 S 5TH ST ","554","S","5TH","ST","-85.759665083000002","38.249533585899997","2018-11-30 00:00:00","RST","Restaurant / Cafe","2012-12-06 15:24:25","40202","04","CENTRAL BUSINESS DISTRICT","(C3)","LD4","Quota Retail Drink (12 AM - 4 AM)","ACTIVE","2012-12-06 15:24:25","Codes and Regulations","1206897","276504"
"193","15ABC1136","Alcoholic Beverage Annual","SILVIO'S","104 FAIRFAX AVE ","104"," ","FAIRFAX","AVE","-85.651283643400006","38.2521283596","2018-05-31 00:00:00","RST","Restaurant / Cafe","2015-08-21 11:41:25","40207","09","ROCKCREEK LEXINGTON ROAD","C1","RLD","NQ2 Retail Drink (Restaurant)","ACTIVE","2015-08-21 11:41:25","Codes and Regulations","1238032","276957"
"194","15ABC1171","Alcoholic Beverage Annual","RIVER HOUSE","3015 RIVER RD 101","3015"," ","RIVER","RD","-85.698811449100006","38.281406665200002","2018-05-31 00:00:00","RST","Restaurant / Cafe","2016-05-18 09:53:51","40207","07","","C2","SBL","Supplemental Bar","ACTIVE","2016-05-18 09:53:51","Codes and Regulations","1224553","287829"
"195","36822","Alcoholic Beverage Annual","CASA FIESTA","10000 BROWNSBORO RD ","10000"," ","BROWNSBORO","RD","-85.563020316600003","38.314074588300002","2019-01-31 00:00:00","RST","Restaurant / Cafe","2013-02-18 15:30:51","40241","17","","C1","RLD","NQ2 Retail Drink (Restaurant)","ACTIVE","","Codes and Regulations","1263697","299140"
"196","15ABC1125","Alcoholic Beverage Annual","RED CASTLE PACKAGED LIQUORS","1200 S 1ST ST ","1200","S","1ST","ST","-85.755765761500001","38.234476115699998","2018-10-31 00:00:00","LIQ","Liquor Store","2015-07-21 10:09:52","40203","06","OLD LOUISVILLE","TNZD","LP2","Quota Retail Package (12 AM - 2 AM)","INACTIVE","","Codes and Regulations","1207927","271003"
"197","36822","Alcoholic Beverage Annual","CASA FIESTA","10000 BROWNSBORO RD ","10000"," ","BROWNSBORO","RD","-85.563020316600003","38.314074588300002","2019-01-31 00:00:00","RST","Restaurant / Cafe","2013-02-18 15:30:51","40241","17","","C1","SD","Sunday Drink","ACTIVE","","Codes and Regulations","1263697","299140"
"198","15ABC1179","Alcoholic Beverage Annual","QUICK STOP LIQUORS","8116 BLUE LICK RD ","8116"," ","BLUE LICK","RD","-85.6875158414","38.132551135100002","2019-02-28 00:00:00","LIQ","Liquor Store","2015-11-06 10:11:47","40219","24","","C2","MBP2","NQ Retail Malt Beverage Package (12 am till 2 am)","ACTIVE","2015-11-06 10:11:47","Codes and Regulations","1226949","233577"
"199","36829","Alcoholic Beverage Annual","O'LINE SPORTS GRILL, THE","2813 N HURSTBOURNE PKY 101","2813","N","HURSTBOURNE","PKY","-85.570767704700003","38.286815687400001","2019-01-31 00:00:00","RST","Restaurant / Cafe","2013-02-04 12:01:23","40223","17","","C1","RLD","NQ2 Retail Drink (Restaurant)","ACTIVE","","Codes and Regulations","1261332","289246"
"200","36829","Alcoholic Beverage Annual","O'LINE SPORTS GRILL, THE","2813 N HURSTBOURNE PKY 101","2813","N","HURSTBOURNE","PKY","-85.570767704700003","38.286815687400001","2019-01-31 00:00:00","RST","Restaurant / Cafe","2013-02-04 12:01:23","40223","17","","C1","SD","Sunday Drink","ACTIVE","","Codes and Regulations","1261332","289246"
"201","15ABC1180","Alcoholic Beverage Annual","DOC CROW'S SOUTHERN SMOKEHOUSE & RAW BAR","127 W MAIN ST ","127","W","MAIN","ST","-85.752797492900001","38.256444142900001","2018-11-30 00:00:00","RST","Restaurant / Cafe","2015-11-09 14:57:36","40202","04","CENTRAL BUSINESS DISTRICT","(C3)","CATE","Caterer","ACTIVE","2015-11-09 14:57:36","Codes and Regulations","1208910","278988"
"202","6716","Alcoholic Beverage Annual","MOLLY MALONE'S","933 BAXTER AVE ","933"," ","BAXTER","AVE","-85.725052383299996","38.2418823573","2018-10-31 00:00:00","RST","Restaurant / Cafe","2004-10-21 09:44:00","40204","08","CHEROKEE TRIANGLE","(C2)","MBRD","NQ4 Retail Malt Beverage Drink","ACTIVE","","Codes and Regulations","1216791","273557"
"203","13ABC1040","Alcoholic Beverage Annual","SPEEDWAY #9391","2210 ARTHUR ST ","2210"," ","ARTHUR","ST","-85.7530673957","38.214962159199999","2018-08-31 00:00:00","GRO","Grocery / Food Mart","2013-11-06 11:00:19","40208","06","UNIVERSITY","C2","MBP2","NQ Retail Malt Beverage Package (12 am till 2 am)","ACTIVE","","Codes and Regulations","1208586","263885"
"204","6716","Alcoholic Beverage Annual","MOLLY MALONE'S","933 BAXTER AVE ","933"," ","BAXTER","AVE","-85.725052383299996","38.2418823573","2018-10-31 00:00:00","RST","Restaurant / Cafe","2004-10-21 09:44:00","40204","08","CHEROKEE TRIANGLE","(C2)","MBRD4","NQ4 Retail Malt Beverage Drink (12 am till 4 am)","ACTIVE","","Codes and Regulations","1216791","273557"
"205","13953","Alcoholic Beverage Annual","BARRET LIQUORS","1033 BARRET AVE ","1033"," ","BARRET","AVE","-85.727296826200003","38.235638967","2018-10-31 00:00:00","LIQ","Liquor Store","2005-04-18 15:42:00","40204","08","TYLER PARK","C2","LP2","Quota Retail Package (12 AM - 2 AM)","ACTIVE","","Codes and Regulations","1216110","271294"
"206","15ABC1206","Alcoholic Beverage Annual","ASAHI RESTAURANT","3701 LEXINGTON RD ","3701"," ","LEXINGTON","RD","-85.660745221400006","38.251899110799997","2018-05-31 00:00:00","RST","Restaurant / Cafe","2016-02-02 08:34:47","40207","09","ROCKCREEK LEXINGTON ROAD","C2","SD","Sunday Drink","ACTIVE","","Codes and Regulations","1235314","276915"
"207","36852","Alcoholic Beverage Annual","LA MOVIDA","7803 3RD STREET RD ","7803"," ","3RD STREET","RD","-85.791208789600006","38.131427103299998","2019-02-28 00:00:00","BAR","Bar","2013-04-12 08:55:22","40214","25","","C2","LD","Quota Retail Drink","ACTIVE","","Codes and Regulations","1197120","233650"
"208","36852","Alcoholic Beverage Annual","LA MOVIDA","7803 3RD STREET RD ","7803"," ","3RD STREET","RD","-85.791208789600006","38.131427103299998","2019-02-28 00:00:00","BAR","Bar","2013-04-12 08:55:22","40214","25","","C2","LD4","Quota Retail Drink (12 AM - 4 AM)","ACTIVE","","Codes and Regulations","1197120","233650"
"209","15ABC1068","Alcoholic Beverage Annual","BUFFALO WILD WINGS","4917 OUTER LOOP ","4917"," ","OUTER","LOOP","-85.666943446499999","38.138317636899998","2019-02-28 00:00:00","RST","Restaurant / Cafe","2015-05-29 11:48:37","40219","24","","C2","RLD","NQ2 Retail Drink (Restaurant)","ACTIVE","2015-05-29 11:48:37","Codes and Regulations","1232898","235585"
"210","15ABC1056","Alcoholic Beverage Annual","WILD EGGS","153 S ENGLISH STATION RD ","153","S","ENGLISH STATION","RD","-85.493344290699994","38.238490757100003","2019-02-28 00:00:00","RST","Restaurant / Cafe","2015-04-22 09:11:25","40245","20","","C1","RLD","NQ2 Retail Drink (Restaurant)","ACTIVE","","Codes and Regulations","1283315","271340"
"211","36852","Alcoholic Beverage Annual","LA MOVIDA","7803 3RD STREET RD ","7803"," ","3RD STREET","RD","-85.791208789600006","38.131427103299998","2019-02-28 00:00:00","BAR","Bar","2013-04-12 08:55:22","40214","25","","C2","SD","Sunday Drink","ACTIVE","","Codes and Regulations","1197120","233650"
"212","36877","Alcoholic Beverage Annual","CHIPOTLE MEXICAN GRILL # 1965","315 S 4TH ST ","315","S","4TH","ST","-85.756909241700001","38.253175164799998","2018-11-30 15:41:00","RST","Restaurant / Cafe","2013-04-23 10:14:52","40202","04","CENTRAL BUSINESS DISTRICT","(C3)","LD","Quota Retail Drink","ACTIVE","","Codes and Regulations","1207710","277817"
"213","15ABC1068","Alcoholic Beverage Annual","BUFFALO WILD WINGS","4917 OUTER LOOP ","4917"," ","OUTER","LOOP","-85.666943446499999","38.138317636899998","2019-02-28 00:00:00","RST","Restaurant / Cafe","2015-05-29 11:48:37","40219","24","","C2","RLD2","NQ2 Restaurant Liquor Drink (12 am till 2 am)","ACTIVE","2015-05-29 11:48:37","Codes and Regulations","1232898","235585"
"214","36877","Alcoholic Beverage Annual","CHIPOTLE MEXICAN GRILL # 1965","315 S 4TH ST ","315","S","4TH","ST","-85.756909241700001","38.253175164799998","2018-11-30 15:41:00","RST","Restaurant / Cafe","2013-04-23 10:14:52","40202","04","CENTRAL BUSINESS DISTRICT","(C3)","SD","Sunday Drink","ACTIVE","","Codes and Regulations","1207710","277817"
"215","15ABC1072","Alcoholic Beverage Annual","WILD EGGS","121 S FLOYD ST ","121","S","FLOYD","ST","-85.747866067499999","38.254947552300003","2018-11-30 00:00:00","RST","Restaurant / Cafe","2015-05-26 12:39:45","40202","04","CENTRAL BUSINESS DISTRICT","(C3)","RLD","NQ2 Retail Drink (Restaurant)","ACTIVE","2015-05-26 12:39:45","Codes and Regulations","1210317","278420"
"216","15ABC1072","Alcoholic Beverage Annual","WILD EGGS","121 S FLOYD ST ","121","S","FLOYD","ST","-85.747866067499999","38.254947552300003","2018-11-30 00:00:00","RST","Restaurant / Cafe","2015-05-26 12:39:45","40202","04","CENTRAL BUSINESS DISTRICT","(C3)","SD","Sunday Drink","ACTIVE","2015-05-26 12:39:45","Codes and Regulations","1210317","278420"
"217","15ABC1048","Alcoholic Beverage Annual","THE YEARLING CLUB","4309 W BROADWAY ","4309","W","BROADWAY"," ","-85.825006602399995","38.250796375999997","2019-03-31 00:00:00","PRI","Private Club","2015-05-01 09:17:11","40211","05","SHAWNEE","R7","PC2","NQ3 Private Club  (12 am till 2 am)","ACTIVE","","Codes and Regulations","1188143","277278"
"218","13ABC1089","Alcoholic Beverage Annual","CROSSROADS IGA #782","14010 SHELBYVILLE RD ","14010"," ","SHELBYVILLE","RD","-85.489074257200002","38.2382203246","2019-02-28 00:00:00","GRO","Grocery / Food Mart","2013-11-18 11:13:57","40245","20","","C1","MBP","NQ Retail Malt Beverage Package","ACTIVE","","Codes and Regulations","1284540","271225"
"219","15ABC1077","Alcoholic Beverage Annual","DIFABIO'S CASAPELA LOUISVILLE","2311 FRANKFORT AVE ","2311"," ","FRANKFORT","AVE","-85.7027761465","38.253536987799997","2018-09-30 00:00:00","RST","Restaurant / Cafe","2015-05-29 23:25:06","40206","09","CLIFTON","C2","MBRD","NQ4 Retail Malt Beverage Drink","ACTIVE","2015-05-29 23:25:06","Codes and Regulations","1223255","277699"
"220","14ABC1069","Alcoholic Beverage Annual","LIQUOR LAND","4049 TAYLORSVILLE RD ","4049"," ","TAYLORSVILLE","RD","-85.621060371300004","38.220195905200001","2019-01-31 00:00:00","LIQ","Liquor Store","2014-05-20 16:50:36","40220","11","HIKES POINT","C1","LP","Quota Retail Package","ACTIVE","2014-05-20 16:50:36","Codes and Regulations","1246537","265199"
"221","15ABC1215","Alcoholic Beverage Annual","ROYALS HOT CHICKEN","736 E MARKET ST ","736","E","MARKET","ST","-85.738619483199997","38.252934591500001","2018-11-30 00:00:00","RST","Restaurant / Cafe","2016-01-25 12:42:30","40202","04","PHOENIX HILL","C2","RLD2","NQ2 Restaurant Liquor Drink (12 am till 2 am)","ACTIVE","","Codes and Regulations","1212960","277644"
"222","6863","Alcoholic Beverage Annual","SPINELLI'S PIZZERIA","614 BAXTER AVE ","614"," ","BAXTER","AVE","-85.7287223549","38.245628667799998","2018-10-31 00:00:00","RST","Restaurant / Cafe","2004-11-03 16:42:00","40204","04","PHOENIX HILL","C1","MBRD4","NQ4 Retail Malt Beverage Drink (12 am till 4 am)","ACTIVE","","Codes and Regulations","1215759","274938"
"223","7138","Alcoholic Beverage Annual","CHEROKEE GOLF COURSE","2501 ALEXANDER RD ","2501"," ","ALEXANDER","RD","-85.705171094099995","38.238179794600001","2018-10-31 00:00:00","BAR","Bar","2004-12-30 09:06:00","40204","08","CHEROKEE SENECA","R1","MBRD","NQ4 Retail Malt Beverage Drink","ACTIVE","","Codes and Regulations","1222479","272118"
"224","3176","Alcoholic Beverage Annual","IROQUOIS HILL POST #6182 VFW","992 LONGFIELD AVE ","992"," ","LONGFIELD","AVE","-85.777201099899997","38.198395745200003","2019-02-28 00:00:00","PRI","Private Club","2004-02-10 08:29:00","40215","15","WYANDOTTE/OAKDALE","OR3","PC2","NQ3 Private Club  (12 am till 2 am)","ACTIVE","","Codes and Regulations","1201553","257967"
"225","37022","Alcoholic Beverage Annual","HAVANA RUMBA EXPRESS","2210 BARDSTOWN RD ","2210"," ","BARDSTOWN","RD","-85.693395516999999","38.224201476200001","2019-01-31 00:00:00","RST","Restaurant / Cafe","2013-06-04 09:42:32","40205","08","BELKNAP","(C1)","RLD","NQ2 Retail Drink (Restaurant)","ACTIVE","","Codes and Regulations","1225781","266975"
"226","37022","Alcoholic Beverage Annual","HAVANA RUMBA EXPRESS","2210 BARDSTOWN RD ","2210"," ","BARDSTOWN","RD","-85.693395516999999","38.224201476200001","2019-01-31 00:00:00","RST","Restaurant / Cafe","2013-06-04 09:42:32","40205","08","BELKNAP","(C1)","SD","Sunday Drink","ACTIVE","","Codes and Regulations","1225781","266975"
"227","13953","Alcoholic Beverage Annual","BARRET LIQUORS","1033 BARRET AVE ","1033"," ","BARRET","AVE","-85.727296826200003","38.235638967","2018-10-31 00:00:00","LIQ","Liquor Store","2005-04-18 15:42:00","40204","08","TYLER PARK","C2","MBP","NQ Retail Malt Beverage Package","ACTIVE","","Codes and Regulations","1216110","271294"
"228","16ABC1015","Alcoholic Beverage Annual","MAIN EVENT ENTERTAINMENT","12500 SYCAMORE STATION PL ","12500"," ","SYCAMORE STATION","PL","-85.5291289253","38.222488928099999","2019-02-28 00:00:00","RST","Restaurant / Cafe","2016-03-09 15:35:00","40299","20","","C2","SD","Sunday Drink","ACTIVE","2016-03-09 15:35:00","Codes and Regulations","1272957","265654"
"229","4021","Alcoholic Beverage Annual","VALU MARKET","7519 OUTER LOOP ","7519"," ","OUTER","LOOP","-85.620552440699996","38.139196179800003","2019-01-31 00:00:00","GRO","Grocery / Food Mart","2004-03-26 15:57:00","40228","23","","PD","MBP","NQ Retail Malt Beverage Package","ACTIVE","","Codes and Regulations","1246244","235703"
"230","28193","Alcoholic Beverage Annual","IMPELLIZZERI'S PIZZA","110 W MAIN ST ","110","W","MAIN","ST","-85.752240490199995","38.255783940500002","2018-11-30 00:00:00","RST","Restaurant / Cafe","2010-10-06 15:18:00","40202","04","CENTRAL BUSINESS DISTRICT","(C3)","RLD4","NQ2 Restaurant Liquor Drink (12 am till 4 am)","ACTIVE","","Codes and Regulations","1209066","278745"
"231","14ABC1162","Alcoholic Beverage Annual","ASPEN CREEK","302 BULLITT LN ","302"," ","BULLITT","LN","-85.618587187399996","38.247465609899997","2019-01-31 00:00:00","RST","Restaurant / Cafe","2015-02-13 15:31:51","40222","18","REMAINDER OF CITY","C2","RLD","NQ2 Retail Drink (Restaurant)","ACTIVE","","Codes and Regulations","1247395","275118"
"232","14ABC1162","Alcoholic Beverage Annual","ASPEN CREEK","302 BULLITT LN ","302"," ","BULLITT","LN","-85.618587187399996","38.247465609899997","2019-01-31 00:00:00","RST","Restaurant / Cafe","2015-02-13 15:31:51","40222","18","REMAINDER OF CITY","C2","SD","Sunday Drink","ACTIVE","","Codes and Regulations","1247395","275118"
"233","14ABC1164","Alcoholic Beverage Annual","HIKO-A-MON DOWNTOWN MODERN JAPANESE","416 W MUHAMMAD ALI BLVD 100","416","W","MUHAMMAD ALI","BLVD","-85.758538632899999","38.251135545899999","2018-11-30 14:54:00","RST","Restaurant / Cafe","2014-12-01 13:55:21","40202","04","CENTRAL BUSINESS DISTRICT","(C3)","MBRD","NQ4 Retail Malt Beverage Drink","ACTIVE","","Codes and Regulations","1207230","277082"
"234","4194","Alcoholic Beverage Annual","HARD ROCK CAFE","424 S 4TH ST 135","424","S","4TH","ST","-85.757706283000005","38.252143227600001","2018-11-30 00:00:00","RST","Restaurant / Cafe","2004-05-21 09:31:00","40202","04","CENTRAL BUSINESS DISTRICT","(C3)","RLD4","NQ2 Restaurant Liquor Drink (12 am till 4 am)","ACTIVE","","Codes and Regulations","1207475","277445"
"235","5107","Alcoholic Beverage Annual","BRISTOL BAR & GRILLE","614 W MAIN ST ","614","W","MAIN","ST","-85.760744168399995","38.256706893999997","2018-11-30 00:00:00","RST","Restaurant / Cafe","2004-07-06 13:30:00","40202","04","CENTRAL BUSINESS DISTRICT","(C3)","RLD2","NQ2 Restaurant Liquor Drink (12 am till 2 am)","ACTIVE","","Codes and Regulations","1206630","279121"
"236","35154","Alcoholic Beverage Annual","FOUR POINTS BY SHERATON","2850 CRITTENDEN DR 100","2850"," ","CRITTENDEN","DR","-85.751406071999995","38.202284268500001","2018-05-31 00:00:00","HOT","Hotels","2012-06-21 10:51:48","40209","15","FAIRGROUNDS","EZ1","LD","Quota Retail Drink","ACTIVE","","Codes and Regulations","1208988","259261"
"237","35154","Alcoholic Beverage Annual","FOUR POINTS BY SHERATON","2850 CRITTENDEN DR 100","2850"," ","CRITTENDEN","DR","-85.751406071999995","38.202284268500001","2018-05-31 00:00:00","HOT","Hotels","2012-06-21 10:51:48","40209","15","FAIRGROUNDS","EZ1","SD","Sunday Drink","ACTIVE","","Codes and Regulations","1208988","259261"
"238","5372","Alcoholic Beverage Annual","ZA'S PIZZA PUB","1573 BARDSTOWN RD ","1573"," ","BARDSTOWN","RD","-85.705208591800002","38.231187112500002","2019-01-31 00:00:00","RST","Restaurant / Cafe","2004-07-21 16:34:00","40205","08","BONNYCASTLE","(C2)","RLD4","NQ2 Restaurant Liquor Drink (12 am till 4 am)","ACTIVE","","Codes and Regulations","1222428","269572"
"239","35338","Alcoholic Beverage Annual","BUFFALO WILD WINGS SPRINGHURST","10206 WESTPORT RD ","10206"," ","WESTPORT","RD","-85.561862443400003","38.292059772800002","2019-01-31 00:00:00","RST","Restaurant / Cafe","2012-11-02 16:45:00","40241","17","","C1","RLD","NQ2 Retail Drink (Restaurant)","ACTIVE","","Codes and Regulations","1263915","291119"
"240","35338","Alcoholic Beverage Annual","BUFFALO WILD WINGS SPRINGHURST","10206 WESTPORT RD ","10206"," ","WESTPORT","RD","-85.561862443400003","38.292059772800002","2019-01-31 00:00:00","RST","Restaurant / Cafe","2012-11-02 16:45:00","40241","17","","C1","SD","Sunday Drink","ACTIVE","","Codes and Regulations","1263915","291119"
"241","14197","Alcoholic Beverage Annual","CAFE 360 & MANTRA LOUNGE","1582 BARDSTOWN RD ","1582"," ","BARDSTOWN","RD","-85.705120062099994","38.230765277400003","2019-01-31 00:00:00","BAR","Bar","2005-05-25 14:45:00","40205","08","DEER PARK","(C2)","MBRD4","NQ4 Retail Malt Beverage Drink (12 am till 4 am)","ACTIVE","","Codes and Regulations","1222451","269418"
"242","27483","Alcoholic Beverage Annual","BARD'S TOWN, THE","1801 BARDSTOWN RD ","1801"," ","BARDSTOWN","RD","-85.700614974299995","38.228511653699996","2019-01-31 00:00:00","BAR","Bar","2010-07-02 10:06:06","40205","08","HIGHLANDS DOUGLASS","(C2)","MBRD","NQ4 Retail Malt Beverage Drink","ACTIVE","","Codes and Regulations","1223732","268577"
"243","35366","Alcoholic Beverage Annual","MELLOW MUSHROOM PIZZA BAKERS","3926 SHELBYVILLE RD ","3926"," ","SHELBYVILLE","RD","-85.654072292500004","38.252616669799998","2018-05-31 00:00:00","RST","Restaurant / Cafe","2012-08-30 15:02:31","40207","09","ROCKCREEK LEXINGTON ROAD","C2","RLD","NQ2 Retail Drink (Restaurant)","ACTIVE","","Codes and Regulations","1237234","277147"
"244","27483","Alcoholic Beverage Annual","BARD'S TOWN, THE","1801 BARDSTOWN RD ","1801"," ","BARDSTOWN","RD","-85.700614974299995","38.228511653699996","2019-01-31 00:00:00","BAR","Bar","2010-07-02 10:06:06","40205","08","HIGHLANDS DOUGLASS","(C2)","MBRD4","NQ4 Retail Malt Beverage Drink (12 am till 4 am)","ACTIVE","","Codes and Regulations","1223732","268577"
"245","35366","Alcoholic Beverage Annual","MELLOW MUSHROOM PIZZA BAKERS","3926 SHELBYVILLE RD ","3926"," ","SHELBYVILLE","RD","-85.654072292500004","38.252616669799998","2018-05-31 00:00:00","RST","Restaurant / Cafe","2012-08-30 15:02:31","40207","09","ROCKCREEK LEXINGTON ROAD","C2","SD","Sunday Drink","ACTIVE","","Codes and Regulations","1237234","277147"
"246","6218","Alcoholic Beverage Annual","DAIRY MART #3282","2728 W MARKET ST ","2728","W","MARKET","ST","-85.796098820899999","38.259421818900002","2019-03-31 00:00:00","GRO","Grocery / Food Mart","2004-10-12 10:49:00","40212","05","RUSSELL","C1","MBP2","NQ Retail Malt Beverage Package (12 am till 2 am)","ACTIVE","","Codes and Regulations","1196496","280278"
"247","27558","Alcoholic Beverage Annual","BUNGALOW JOE'S","7813 BEULAH CHURCH RD 102","7813"," ","BEULAH CHURCH","RD","-85.613009765499996","38.135461689400003","2019-01-31 00:00:00","RST","Restaurant / Cafe","2010-09-02 13:14:00","40228","23","","PD","RLD2","NQ2 Restaurant Liquor Drink (12 am till 2 am)","ACTIVE","","Codes and Regulations","1248393","234311"
"248","14ABC1186","Alcoholic Beverage Annual","KAIJU","1004 E OAK ST ","1004","E","OAK","ST","-85.737055267499997","38.232672605899999","2018-10-31 00:00:00","BAR","Bar","2014-12-09 12:03:10","40204","10","GERMANTOWN","R6","LD4","Quota Retail Drink (12 AM - 4 AM)","ACTIVE","2014-12-09 12:03:10","Codes and Regulations","1213290","270259"
"249","15ABC1020","Alcoholic Beverage Annual","7TH STREET FOOD MART","2517 7TH STREET RD ","2517"," ","7TH STREET","RD","-85.782932672800001","38.214384283299999","2018-05-31 00:00:00","GRO","Grocery / Food Mart","2015-03-06 12:58:20","40208","06","TAYLOR BERRY","C1","MBP","NQ Retail Malt Beverage Package","ACTIVE","","Codes and Regulations","1200003","263816"
"250","6274","Alcoholic Beverage Annual","LORIE'S LIQUORS","2316 W MARKET ST ","2316","W","MARKET","ST","-85.789828424500001","38.2588949525","2018-03-31 00:00:00","LIQ","Liquor Store","2004-11-01 13:20:00","40212","04","RUSSELL","C1","LP2","Quota Retail Package (12 AM - 2 AM)","ACTIVE","","Codes and Regulations","1198293","280056"
"251","5781","Alcoholic Beverage Annual","J & H SPORTSMAN CLUB","1464 S 7TH ST ","1464","S","7TH","ST","-85.768813453899995","38.227523554900003","2018-05-31 00:00:00","PRI","Private Club","2004-08-16 13:13:00","40208","06","PARK HILL","EZ1","MBRD","NQ4 Retail Malt Beverage Drink","ACTIVE","","Codes and Regulations","1204138","268533"
"252","5781","Alcoholic Beverage Annual","J & H SPORTSMAN CLUB","1464 S 7TH ST ","1464","S","7TH","ST","-85.768813453899995","38.227523554900003","2018-05-31 00:00:00","PRI","Private Club","2004-08-16 13:13:00","40208","06","PARK HILL","EZ1","MBRD4","NQ4 Retail Malt Beverage Drink (12 am till 4 am)","ACTIVE","","Codes and Regulations","1204138","268533"
"253","14ABC1047","Alcoholic Beverage Annual","BEEF O' BRADY'S #1","11324 PRESTON HWY ","11324"," ","PRESTON","HWY","-85.670136546999998","38.084400619199997","2019-01-31 00:00:00","RST","Restaurant / Cafe","2014-03-27 15:51:56","40229","13","","C2","RLD2","NQ2 Restaurant Liquor Drink (12 am till 2 am)","ACTIVE","","Codes and Regulations","1231677","215967"
"254","35574","Alcoholic Beverage Annual","BANK STREET LIQUORS","3627 BANK ST ","3627"," ","BANK","ST","-85.807506300599997","38.272419997299998","2019-03-31 00:00:00","LIQ","Liquor Store","2012-08-16 08:15:58","40212","05","PORTLAND","C1","LP","Quota Retail Package","ACTIVE","","Codes and Regulations","1193301","285066"
"255","14ABC1055","Alcoholic Beverage Annual","JASMINE CHINESE CUISINE","13825 ENGLISH VILLA DR ","13825"," ","ENGLISH VILLA","DR","-85.4943183078","38.240062227700001","2019-02-28 00:00:00","RST","Restaurant / Cafe","2014-04-15 11:52:17","40245","20","","C1","RLD","NQ2 Retail Drink (Restaurant)","ACTIVE","2014-04-15 11:52:17","Codes and Regulations","1283043","271916"
"256","4265","Alcoholic Beverage Annual","EXECUTIVE STRIKE & SPARE","911 PHILLIPS LN ","911"," ","PHILLIPS","LN","-85.741744832999998","38.193482418199999","2018-05-31 00:00:00","AMU","Amusement","2004-04-21 11:56:00","40209","21","FAIRGROUNDS","R5","LD4","Quota Retail Drink (12 AM - 4 AM)","ACTIVE","2004-04-21 11:56:00","Codes and Regulations","1211712","256011"
"257","14ABC1055","Alcoholic Beverage Annual","JASMINE CHINESE CUISINE","13825 ENGLISH VILLA DR ","13825"," ","ENGLISH VILLA","DR","-85.4943183078","38.240062227700001","2019-02-28 00:00:00","RST","Restaurant / Cafe","2014-04-15 11:52:17","40245","20","","C1","SD","Sunday Drink","ACTIVE","2014-04-15 11:52:17","Codes and Regulations","1283043","271916"
"258","23541","Alcoholic Beverage Annual","MOLLY MALONE'S","3900 SHELBYVILLE RD ","3900"," ","SHELBYVILLE","RD","-85.654780983600006","38.252704269299997","2018-05-31 00:00:00","RST","Restaurant / Cafe","2009-10-23 15:06:54","40207","09","ROCKCREEK LEXINGTON ROAD","C2","MBRD4","NQ4 Retail Malt Beverage Drink (12 am till 4 am)","ACTIVE","","Codes and Regulations","1237031","277182"
"259","31943","Alcoholic Beverage Annual","SILK RENTAL HALL","614 HEYWOOD AVE ","614"," ","HEYWOOD","AVE","-85.769418610599999","38.206684322999998","2018-05-31 00:00:00","AMU","Amusement","2011-04-08 12:41:00","40208","15","SOUTH LOUISVILLE","C2","MBRD","NQ4 Retail Malt Beverage Drink","ACTIVE","","Codes and Regulations","1203839","260948"
"260","31943","Alcoholic Beverage Annual","SILK RENTAL HALL","614 HEYWOOD AVE ","614"," ","HEYWOOD","AVE","-85.769418610599999","38.206684322999998","2018-05-31 00:00:00","AMU","Amusement","2011-04-08 12:41:00","40208","15","SOUTH LOUISVILLE","C2","MBRD2","NQ4 Retail Malt Beverage Drink (12 am till 2 am)","ACTIVE","","Codes and Regulations","1203839","260948"
"261","15ABC1051","Alcoholic Beverage Annual","KOSAIR SHRINE CLUB","4120 BARDSTOWN RD ","4120"," ","BARDSTOWN","RD","-85.646979284799997","38.191488788699999","2019-01-31 00:00:00","PRI","Private Club","2015-04-09 15:46:27","40218","02","","C2","SD","Sunday Drink","ACTIVE","","Codes and Regulations","1238933","254858"
"262","3512","Alcoholic Beverage Annual","PLEASURE VALLEY LIONS CLUB","6000 LIONS ARMS DR ","6000"," ","LIONS ARMS","DR","-85.864497317499996","38.177300759300003","2019-02-28 00:00:00","PRI","Private Club","2004-02-26 10:48:00","40216","01","","C1","MBRD","NQ4 Retail Malt Beverage Drink","ACTIVE","","Codes and Regulations","1176335","250714"
"263","3415","Alcoholic Beverage Annual","OUR PLACE LIQUORS","3808 POPLAR LEVEL RD ","3808"," ","POPLAR LEVEL","RD","-85.7129347435","38.204741974000001","2019-02-28 00:00:00","LIQ","Liquor Store","2004-02-23 09:15:00","40213","10","CAMP TAYLOR","C1","MBP","NQ Retail Malt Beverage Package","ACTIVE","","Codes and Regulations","1220056","259978"
"264","15ABC1098","Alcoholic Beverage Annual","WALGREENS #03776","1475 DIXIE HWY ","1475"," ","DIXIE","HWY","-85.789859052899999","38.228637553600002","2018-08-31 00:00:00","DRG","Drug Store","2015-07-29 18:10:09","40210","03","PARK HILL","C1","LP","Quota Retail Package","ACTIVE","2015-07-29 18:10:09","Codes and Regulations","1198100","269039"
"265","15ABC1098","Alcoholic Beverage Annual","WALGREENS #03776","1475 DIXIE HWY ","1475"," ","DIXIE","HWY","-85.789859052899999","38.228637553600002","2018-08-31 00:00:00","DRG","Drug Store","2015-07-29 18:10:09","40210","03","PARK HILL","C1","MBP","NQ Retail Malt Beverage Package","ACTIVE","2015-07-29 18:10:09","Codes and Regulations","1198100","269039"
"266","15ABC1107","Alcoholic Beverage Annual","WALGREENS #05449","3600 FERN VALLEY RD ","3600"," ","FERN VALLEY","RD","-85.695529524199998","38.156655819900003","2018-08-31 00:00:00","DRG","Drug Store","2015-07-29 17:23:41","40219","02","","C1","LP","Quota Retail Package","ACTIVE","2015-07-29 17:23:40","Codes and Regulations","1224782","242390"
"267","5048","Alcoholic Beverage Annual","KROGER L-346","3039 BRECKENRIDGE LN ","3039"," ","BRECKENRIDGE","LN","-85.626604261699995","38.217722140399999","2018-07-31 00:00:00","GRO","Grocery / Food Mart","2004-07-02 09:22:00","40220","26","","C1","MBP2","NQ Retail Malt Beverage Package (12 am till 2 am)","ACTIVE","","Codes and Regulations","1244931","264322"
"268","35838","Alcoholic Beverage Annual","MIRALEA","320 JOE CONWAY CIR 1101","320"," ","JOE CONWAY","CIR","-85.666138537400002","38.254327507500001","2018-05-31 00:00:00","PRI","Private Club","2012-11-07 11:48:12","40207","09","CRESCENT HILL","R5A","SD","Sunday Drink","ACTIVE","","Codes and Regulations","1233779","277823"
"269","5049","Alcoholic Beverage Annual","KROGER L-327","2710 W BROADWAY ","2710","W","BROADWAY"," ","-85.796990617800006","38.248635914700003","2018-07-31 00:00:00","GRO","Grocery / Food Mart","2004-07-02 09:24:00","40211","06","PARKLAND","C1","MBP","NQ Retail Malt Beverage Package","ACTIVE","","Codes and Regulations","1196174","276355"
"270","5050","Alcoholic Beverage Annual","KROGER L-224","2200 BROWNSBORO RD ","2200"," ","BROWNSBORO","RD","-85.704409817400006","38.258070098300003","2018-07-31 00:00:00","GRO","Grocery / Food Mart","2004-07-02 09:30:00","40206","09","CLIFTON","C1","MBP","NQ Retail Malt Beverage Package","ACTIVE","","Codes and Regulations","1222812","279357"
"271","35866","Alcoholic Beverage Annual","DOLLAR GENERAL STORE #7153","1207 GILMORE LN ","1207"," ","GILMORE","LN","-85.712275496999993","38.175265230400001","2018-07-31 00:00:00","GRO","Grocery / Food Mart","2012-09-06 10:55:20","40213","21","","C1","MBP","NQ Retail Malt Beverage Package","ACTIVE","","Codes and Regulations","1220075","249242"
"272","5228","Alcoholic Beverage Annual","CVS PHARMACY #6202","2106 BROWNSBORO RD ","2106"," ","BROWNSBORO","RD","-85.7052798868","38.258383330000001","2018-07-31 09:55:00","LIQ","Liquor Store","2004-07-13 11:42:00","40206","09","CLIFTON","C1","MBP","NQ Retail Malt Beverage Package","ACTIVE","","Codes and Regulations","1222564","279475"
"273","5462","Alcoholic Beverage Annual","SPEEDWAY #9645","7400 3RD STREET RD ","7400"," ","3RD STREET","RD","-85.775991853700006","38.145941539799999","2018-08-31 00:00:00","GRO","Grocery / Food Mart","2004-07-30 10:07:00","40214","25","AUBURNDALE","C2","MBP2","NQ Retail Malt Beverage Package (12 am till 2 am)","ACTIVE","","Codes and Regulations","1201584","238862"
"274","5466","Alcoholic Beverage Annual","SPEEDWAY #9612","1101 BARDSTOWN RD ","1101"," ","BARDSTOWN","RD","-85.720220796299998","38.2387025843","2018-08-31 00:00:00","GRO","Grocery / Food Mart","2004-07-30 10:18:00","40204","08","CHEROKEE TRIANGLE","(C2)","MBP2","NQ Retail Malt Beverage Package (12 am till 2 am)","ACTIVE","","Codes and Regulations","1218160","272377"
"275","5468","Alcoholic Beverage Annual","SPEEDWAY #9685","5510 BARDSTOWN RD ","5510"," ","BARDSTOWN","RD","-85.600908407899993","38.165737948299999","2018-08-31 00:00:00","GRO","Grocery / Food Mart","2004-07-30 10:24:00","40291","22","","C1","MBP","NQ Retail Malt Beverage Package","ACTIVE","","Codes and Regulations","1252035","245284"
"276","5468","Alcoholic Beverage Annual","SPEEDWAY #9685","5510 BARDSTOWN RD ","5510"," ","BARDSTOWN","RD","-85.600908407899993","38.165737948299999","2018-08-31 00:00:00","GRO","Grocery / Food Mart","2004-07-30 10:24:00","40291","22","","C1","MBP2","NQ Retail Malt Beverage Package (12 am till 2 am)","ACTIVE","","Codes and Regulations","1252035","245284"
"277","5469","Alcoholic Beverage Annual","SPEEDWAY #9518","4308 BISHOP LN ","4308"," ","BISHOP","LN","-85.686579249299996","38.199744162899997","2018-08-31 00:00:00","GRO","Grocery / Food Mart","2004-07-30 10:27:00","40218","10","","C1","MBP","NQ Retail Malt Beverage Package","ACTIVE","","Codes and Regulations","1227600","258039"
"278","5470","Alcoholic Beverage Annual","SPEEDWAY #9514","2965 BRECKENRIDGE LN ","2965"," ","BRECKENRIDGE","LN","-85.628337182899998","38.218789236100001","2018-08-31 00:00:00","GRO","Grocery / Food Mart","2004-07-30 10:29:00","40220","26","HIKES POINT","C1","MBP2","NQ Retail Malt Beverage Package (12 am till 2 am)","ACTIVE","","Codes and Regulations","1244439","264718"
"279","5471","Alcoholic Beverage Annual","CIRCLE K #3246","4701 S 3RD ST ","4701","S","3RD","ST","-85.765850160499994","38.181115117200001","2018-08-31 00:00:00","GRO","Grocery / Food Mart","2004-07-30 10:34:00","40214","21","BEECHMONT","C1","MBP","NQ Retail Malt Beverage Package","ACTIVE","","Codes and Regulations","1204711","251621"
"280","5471","Alcoholic Beverage Annual","CIRCLE K #3246","4701 S 3RD ST ","4701","S","3RD","ST","-85.765850160499994","38.181115117200001","2018-08-31 00:00:00","GRO","Grocery / Food Mart","2004-07-30 10:34:00","40214","21","BEECHMONT","C1","MBP2","NQ Retail Malt Beverage Package (12 am till 2 am)","ACTIVE","","Codes and Regulations","1204711","251621"
"281","5472","Alcoholic Beverage Annual","SPEEDWAY #9373","9500 BROWNSBORO RD ","9500"," ","BROWNSBORO","RD","-85.574555779500002","38.307089754899998","2018-08-31 00:00:00","GRO","Grocery / Food Mart","2004-07-30 10:34:00","40241","17","","C1","MBP","NQ Retail Malt Beverage Package","ACTIVE","","Codes and Regulations","1260351","296644"
"282","5472","Alcoholic Beverage Annual","SPEEDWAY #9373","9500 BROWNSBORO RD ","9500"," ","BROWNSBORO","RD","-85.574555779500002","38.307089754899998","2018-08-31 00:00:00","GRO","Grocery / Food Mart","2004-07-30 10:34:00","40241","17","","C1","MBP2","NQ Retail Malt Beverage Package (12 am till 2 am)","ACTIVE","","Codes and Regulations","1260351","296644"
"283","5473","Alcoholic Beverage Annual","SPEEDWAY #8132","2300 BROWNSBORO RD ","2300"," ","BROWNSBORO","RD","-85.703220400500001","38.258159054099998","2018-08-31 00:00:00","GRO","Grocery / Food Mart","2004-07-30 10:36:00","40206","09","CLIFTON","C1","MBP","NQ Retail Malt Beverage Package","ACTIVE","","Codes and Regulations","1223154","279384"
"284","5474","Alcoholic Beverage Annual","SPEEDWAY #9662","4300 CRITTENDEN DR ","4300"," ","CRITTENDEN","DR","-85.751309211700004","38.1930466763","2018-08-31 00:00:00","GRO","Grocery / Food Mart","2004-07-30 10:39:00","40209","21","HIGHLAND PARK","C1","MBP2","NQ Retail Malt Beverage Package (12 am till 2 am)","ACTIVE","","Codes and Regulations","1208961","255897"
"285","5476","Alcoholic Beverage Annual","SPEEDWAY #9714","4340 CANE RUN RD ","4340"," ","CANE RUN","RD","-85.839010028100006","38.198551011699998","2018-08-31 00:00:00","GRO","Grocery / Food Mart","2004-07-30 10:43:00","40216","01","","C1","MBP","NQ Retail Malt Beverage Package","ACTIVE","","Codes and Regulations","1183794","258324"
"286","5506","Alcoholic Beverage Annual","CIRCLE K #3235","7800 ST ANDREWS CHURCH RD ","7800"," ","ST ANDREWS CHURCH","RD","-85.820138364399995","38.151916737400001","2018-08-31 00:00:00","GRO","Grocery / Food Mart","2004-07-30 13:04:00","40214","12","","C1","MBP2","NQ Retail Malt Beverage Package (12 am till 2 am)","ACTIVE","","Codes and Regulations","1188927","241251"
